PSTAT,PNAME,PLNGENAN,CNTYNAME,LAT,LON,YEAR
AK,7-Mile Ridge Wind Project,,Southeast Fairbanks,63.210689,-143.247156,2016
AK,Agrium Kenai Nitrogen Operations,,Kenai Peninsula,60.6732,-151.3784,2016
AK,Alakanuk,1213,Wade Hampton,62.6833,-164.6544,2016
AK,Allison Creek Hydro,881,Valdez Cordova,61.084444,-146.353333,2016
AK,Ambler,1316,Northwest Arctic,67.08798,-157.856719,2016
AK,Anchorage 1,45082,Anchorage,61.2221,-149.8661,2016
AK,Angoon,1714,Hoonah-Angoon,57.499166,-134.58614,2016
AK,Aniak,2614,Bethel,61.580678,-159.535643,2016
AK,Annex Creek,25644,Juneau,58.3176,-134.101,2016
AK,Auke Bay,8,Juneau,58.3875,-134.6446,2016
AK,Aurora Energy LLC Chena,191982,Fairbanks North Star,64.847743,-147.735063,2016
AK,Barrow,50162,North Slope,71.292,-156.7786,2016
AK,Battery Energy Storage System,-2392,Fairbanks North Star,64.8167,-147.725,2016
AK,Beaver Falls,42915,Ketchikan Gateway,55.37975,-131.470269,2016
AK,Beluga,84421,Kenai Peninsula,61.1861,-151.0356,2016
AK,Bernice Lake,12,Kenai Peninsula,60.6935,-151.3874,2016
AK,Bethel,41020,Bethel,60.7897,-161.787778,2016
AK,Black Bear Lake,20763,Prince of Wales-Hyder,55.476472,-133.14772,2016
AK,Blue Lake Hydro,69018,Sitka,57.0516,-135.2297,2016
AK,Bradley Lake,430509,Kenai Peninsula,59.77862,-150.94015,2016
AK,Brevig Mission,1137,Nome,65.331716,-166.479506,2016
AK,Centennial,3046,Prince of Wales-Hyder,55.121433,-131.560267,2016
AK,Chester Lake,4585,Prince of Wales-Hyder,55.116879,-131.545879,2016
AK,Chevak,2471,Bethel,61.525297,-165.590152,2016
AK,Cooper Lake,86666,Kenai Peninsula,60.392331,-149.665603,2016
AK,Craig (AK),431,Prince of Wales-Hyder,55.47691,-133.14869,2016
AK,Delta Power,38,Southeast Fairbanks,64.028056,-145.719444,2016
AK,Delta Wind Farm,4446,Southeast Fairbanks,64.013889,-145.596667,2016
AK,Dillingham,18122,Dillingham,59.042914,-158.468597,2016
AK,Dutch Harbor,46918,Aleutians West,53.892459,-166.538185,2016
AK,Eielson AFB Central Heat & Power Plant,69895,Fairbanks North Star,64.67141,-147.075988,2016
AK,Eklutna Generation Station,819046,Anchorage,61.457778,-149.351389,2016
AK,Eklutna Hydro Project,76916,Matanuska Susitna,61.475211,-149.15009,2016
AK,Elim,1278,Nome,64.616558,-162.263717,2016
AK,Emmonak,4654,Wade Hampton,62.777694,-164.531517,2016
AK,ESS Battery,0,Kodiak Island,57.799167,-152.404167,2016
AK,Eva Creek Wind,73845,Denali,64.058333,-148.9,2016
AK,Fairbanks,7133,Fairbanks North Star,64.854171,-147.719351,2016
AK,False Island,689,Prince of Wales-Hyder,55.48918,-133.1345,2016
AK,Fire Island Wind,56022,Anchorage,61.13,-150.243611,2016
AK,Flywheel Energy Storage System,0,Kodiak Island,57.780114,-152.443783,2016
AK,Fort Greely Power Plant,108,Southeast Fairbanks,63.973572,-145.716581,2016
AK,Galena Electric Utility,5390,Yukon Koyukuk,64.74417,-156.8736,2016
AK,Gambell,1911,Nome,63.777058,-171.712439,2016
AK,George M Sullivan Generation Plant 2,589738,Anchorage,61.229713,-149.716744,2016
AK,Glennallen,10403,Valdez Cordova,62.110415,-145.532529,2016
AK,Goat Lake Hydro,16957,Skagway,59.5357,-135.2123,2016
AK,Gold Creek,4597,Juneau,58.3107,-134.4174,2016
AK,Green Lake,35983,Sitka,56.986284,-135.12275,2016
AK,Gwitchyaa Zhee,2554,Yukon Koyukuk,66.566287,-145.253052,2016
AK,Haines,-201,Haines,59.235931,-135.446228,2016
AK,Healy,192475,Denali,63.8542,-148.95,2016
AK,Hiilangaay Hydro,,Prince of Wales-Hyder,55.216389,-132.603611,2016
AK,Hoonah,3348,Hoonah-Angoon,58.106432,-135.43074,2016
AK,Hooper Bay,3326,Bethel,61.530858,-166.101944,2016
AK,Humpback Creek,3743,Valdez Cordova,60.612822,-145.679411,2016
AK,Hydaburg,-9,Prince of Wales-Hyder,55.204937,-132.821435,2016
AK,Industrial Plant,138,Juneau,58.367635,-134.60802,2016
AK,International,-780,Anchorage,61.168972,-149.911038,2016
AK,Jarvis Street,1099,Sitka,57.0497,-135.3128,2016
AK,JBER Landfill Gas Power Plant,42516,Anchorage,61.286,-149.61,2016
AK,Kake,2139,Petersburg,56.962983,-133.922557,2016
AK,Kasidaya Creek Hydro,7123,Skagway,59.4072,-135.3408,2016
AK,Kasigluk,2958,Bethel,60.8731,-162.5197,2016
AK,Ketchikan,20683,Ketchikan Gateway,55.344641,-131.633425,2016
AK,Kiana,1545,Northwest Arctic,66.973889,-160.428592,2016
AK,King Cove,3914,Aleutians East,55.061683,-162.3103,2016
AK,Kivalina,1282,Northwest Arctic,67.726644,-164.538447,2016
AK,Klawock,,Prince of Wales-Hyder,55.557778,-132.981389,2016
AK,Kodiak,0,Kodiak Island,57.789956,-152.396982,2016
AK,Kotlik,1927,Wade Hampton,63.03215,-163.553106,2016
AK,Kotzebue,20474,Northwest Arctic,66.837778,-162.556944,2016
AK,Koyuk,1287,Nome,64.932089,-161.167103,2016
AK,Lake Dorothy Hydroelectric Project,87454,Juneau,58.2325,-134.0533,2016
AK,Lemon Creek,212,Juneau,58.3536,-134.4953,2016
AK,Mahoney Lake Hydroelectric,,Ketchikan Gateway,55.419444,-131.537778,2016
AK,Marshall,1474,Wade Hampton,61.878186,-162.085147,2016
AK,McGrath,2289,Yukon Koyukuk,62.95699,-155.594997,2016
AK,Mountain Village,2729,Bethel,62.085569,-163.729072,2016
AK,Naknek,22066,Bristol Bay,58.730417,-157.007222,2016
AK,New Stuyahok,1343,Dillingham,59.448358,-157.325528,2016
AK,Newhalen,3177,Lake and Peninsula,59.899054,-154.698735,2016
AK,Nikiski Co-Generation,398898,Kenai Peninsula,60.676539,-151.377713,2016
AK,Noatak,1813,Northwest Arctic,67.570931,-162.965728,2016
AK,Noorvik,1855,Northwest Arctic,66.834519,-161.038717,2016
AK,North Pole,417652,Fairbanks North Star,64.7356,-147.3481,2016
AK,Northway,1107,Southeast Fairbanks,62.9617,-141.9372,2016
AK,NSB Anaktuvuk Pass,3855,North Slope,68.13795,-151.741017,2016
AK,NSB Atqasuk Utility,2859,North Slope,70.4826,-157.4252,2016
AK,NSB Kaktovik Utility,4580,North Slope,70.125617,-143.619033,2016
AK,NSB Nuiqsut Utility,6349,North Slope,70.220565,-150.993492,2016
AK,NSB Point Hope Utility,6549,North Slope,68.348424,-166.737211,2016
AK,NSB Point Lay Utility,3609,North Slope,69.740833,-163.005833,2016
AK,NSB Wainwright Utility,6796,North Slope,70.642877,-160.020461,2016
AK,Nunapitchuk,,Bethel,60.89588,-162.459756,2016
AK,Nymans Plant,0,Kodiak Island,57.731608,-152.507044,2016
AK,Orca,5589,Valdez Cordova,60.555889,-145.752983,2016
AK,Pelican,964,Hoonah-Angoon,57.957197,-136.220095,2016
AK,Petersburg,11732,Petersburg,56.81104,-132.957091,2016
AK,Pillar Mountain Wind Project,29309,Kodiak Island,57.7869,-152.4406,2016
AK,Pilot Station,1938,Wade Hampton,61.936456,-162.880706,2016
AK,Port Lions,0,Kodiak Island,57.864775,-152.855441,2016
AK,Power Creek,15539,Valdez Cordova,60.588686,-145.604539,2016
AK,Purple Lake,14286,Prince of Wales-Hyder,55.091263,-131.544978,2016
AK,Quinhagak,2156,Bethel,59.747436,-161.910647,2016
AK,S W Bailey,-1111,Ketchikan Gateway,55.357397,-131.69696,2016
AK,Salmon Creek 1,27902,Juneau,58.3269,-134.4631,2016
AK,Savoonga,2302,Nome,63.695267,-170.475661,2016
AK,Scammon Bay,1634,Wade Hampton,61.843036,-165.581497,2016
AK,Selawik,2812,Northwest Arctic,66.606778,-160.014808,2016
AK,Seldovia,87,Kenai Peninsula,59.439542,-151.713439,2016
AK,Seward (AK),105,Kenai Peninsula,60.130922,-149.43501,2016
AK,Shishmaref,1638,Nome,66.255072,-166.073589,2016
AK,Shungnak,1551,Northwest Arctic,66.888114,-157.140206,2016
AK,Silvis,13207,Ketchikan Gateway,55.381402,-131.517758,2016
AK,Skagway,2781,Skagway,59.4545,-135.3131,2016
AK,Snake River,31847,Nome,64.505331,-165.429814,2016
AK,Snettisham,273037,Juneau,58.1415,-133.737,2016
AK,Soldotna,39612,Kenai Peninsula,60.499444,-150.997222,2016
AK,Solomon Gulch,54850,Valdez Cordova,61.0828,-146.3033,2016
AK,South Fork,5322,Prince of Wales-Hyder,55.563333,-132.891111,2016
AK,Southcentral Power Project,871990,Anchorage,61.167417,-149.905304,2016
AK,St Marys IC,2980,Bethel,62.051525,-163.172567,2016
AK,St. Michael,,Nome,63.4775,-162.0383,2016
AK,Stebbins,3351,Nome,63.521047,-162.286322,2016
AK,Swampy Acres,0,Kodiak Island,57.77556,-152.48028,2016
AK,Swan Lake,71246,Ketchikan Gateway,55.615208,-131.356111,2016
AK,Sweetheart Lake Hydroelectric Facility,,Juneau,57.9449,-133.6867,2016
AK,Terror Lake,124484,Kodiak Island,57.6861,-152.895,2016
AK,Tesoro Kenai Cogeneration Plant,62679,Kenai Peninsula,60.677,-151.3815,2016
AK,Thorne Bay Plant,-1,Prince of Wales-Hyder,55.68586,-132.52892,2016
AK,TNSG North Plant,72702,North Slope,70.235278,-148.383611,2016
AK,TNSG South Plant,0,North Slope,70.2,-148.466667,2016
AK,Togiak,2987,Dillingham,59.059744,-160.380278,2016
AK,Tok,9175,Southeast Fairbanks,63.33552,-142.99997,2016
AK,Toksook Bay,3430,Bethel,60.530142,-165.108575,2016
AK,Tyee Lake Hydroelectric Facility,96901,Wrangell,56.216403,-131.504344,2016
AK,Unalakleet,3199,Nome,63.876789,-160.790414,2016
AK,Unalaska Power Module,289,Aleutians West,53.863993,-166.512591,2016
AK,Unisea G 2,30339,Aleutians West,53.8796,-166.5532,2016
AK,University of Alaska Fairbanks,41064,Fairbanks North Star,64.854171,-147.822075,2016
AK,Upper Kalskag,1447,Bethel,61.526858,-160.348128,2016
AK,Utility Plants Section,105551,Fairbanks North Star,64.825601,-147.648627,2016
AK,Valdez,5050,Valdez Cordova,61.1303,-146.3647,2016
AK,Valdez Cogen,17636,Valdez Cordova,61.0839,-146.2529,2016
AK,Viking,-10,Prince of Wales-Hyder,55.540708,-133.102344,2016
AK,Westward Seafoods,18455,Aleutians West,53.858508,-166.55288,2016
AK,Whitman,7649,Ketchikan Gateway,55.328056,-131.530833,2016
AK,Wrangell,44,Wrangell,56.460976,-132.379439,2016
AK,Yakutat,5794,Yakutat,59.544553,-139.724306,2016
AL,ABC Coke,2989,Jefferson,33.582793,-86.779866,2016
AL,Alabama Pine Pulp,439412,Monroe,31.5825,-87.4889,2016
AL,Alabama River Pulp,310492,Monroe,31.5825,-87.4889,2016
AL,Albertville,0,Marshall,34.363389,-86.223889,2016
AL,AMEA Sylacauga Plant,46242,Talladega,33.1661,-86.2825,2016
AL,ANAD Solar Array,,Calhoun,33.626728,-85.969481,2016
AL,APC1,,,,,2016
AL,APC2,,,,,2016
AL,APC3,,,,,2016
AL,Bankhead Dam,-325,Tuscaloosa,33.458665,-87.356823,2016
AL,Barry,12770891,Mobile,31.0069,-88.0103,2016
AL,Bartletts Ferry,362014,Lee,32.661976,-85.091552,2016
AL,Bellefonte,,Jackson,34.7092,-85.9278,2016
AL,Boise Cascade Pulp & Paper Mill,124312,Clarke,31.4894,-87.8989,2016
AL,Browns Ferry,26214623,Limestone,34.7042,-87.1189,2016
AL,Calhoun Energy Center,195125,Calhoun,33.5883,-85.9731,2016
AL,Charles R Lowman,1480692,Washington,31.488019,-87.910747,2016
AL,Colbert,744333,Colbert,34.7439,-87.8486,2016
AL,Crestwood Dothan,695,Houston,31.262356,-85.402737,2016
AL,Decatur Energy Center,2600458,Morgan,34.6292,-87.0214,2016
AL,Decatur-Morgan Co LFG Recovery Project,10970,Morgan,34.623611,-87.101111,2016
AL,District 100 Transco Gas Pipe Line,,Chilton,32.668889,-86.72,2016
AL,E B Harris Generating Plant,6096885,Autauga,32.381352,-86.574366,2016
AL,E C Gaston,4280420,Shelby,33.244211,-86.458056,2016
AL,ExxonMobil Mobile Bay Onshore,83285,Mobile,30.43203,-88.18241,2016
AL,Fort Rucker Solar Array,,Dale,31.331148,-85.73019,2016
AL,Gadsden,190978,Etowah,34.0128,-85.9708,2016
AL,Gantt,5718,Covington,31.4033,-86.479469,2016
AL,Georgia-Pacific Brewton Mill,226578,Escambia,31.077,-87.1116,2016
AL,Georgia-Pacific Consr Prods LP-Naheola,219376,Choctaw,32.2268,-88.0252,2016
AL,Goat Rock,116128,Lee,32.60965,-85.0805,2016
AL,Gorgas,5494441,Walker,33.644344,-87.196486,2016
AL,Greene County,1309634,Greene,32.6017,-87.7811,2016
AL,Guntersville,506256,Marshall,34.421272,-86.393931,2016
AL,H Neely Henry Dam,154855,Calhoun,33.7845,-86.0524,2016
AL,Harris Dam,114934,Randolph,33.258281,-85.616047,2016
AL,Hillabee Energy Center,5387101,Tallapoosa,33.000669,-85.903278,2016
AL,Hog Bayou Energy Center,1501249,Mobile,30.7478,-88.0575,2016
AL,Holt Dam,129325,Tuscaloosa,33.2553,-87.4495,2016
AL,International Paper-Prattville Mill,573671,Autauga,32.4187,-86.4718,2016
AL,International Paper-Riverdale Mill,576969,Dallas,32.426016,-86.870912,2016
AL,James H Miller Jr,18193039,Jefferson,33.6319,-87.0597,2016
AL,Jones Bluff,195134,Autauga,32.324242,-86.784319,2016
AL,Jordan Dam,269244,Elmore,32.6189,-86.2548,2016
AL,Joseph M Farley,13687256,Houston,31.2231,-85.1116,2016
AL,LaFayette Solar Farm,,Chambers,32.876313,-85.38821,2016
AL,Langdale,0,Chambers,32.813836,-85.167786,2016
AL,Lay Dam,404623,Chilton,32.9633,-86.5187,2016
AL,Lewis Smith Dam,233853,Walker,33.9406,-87.1077,2016
AL,Logan Martin Dam,266305,Talladega,33.425878,-86.337547,2016
AL,Martin Dam,304289,Elmore,32.680394,-85.911442,2016
AL,McIntosh (7063),308871,Washington,31.2546,-88.0299,2016
AL,McWilliams,3816606,Covington,31.400255,-86.476449,2016
AL,"MeadWestvaco Coated Board, LLC",777256,Russell,32.1761,-85.0272,2016
AL,Millers Ferry,239468,Wilcox,32.100881,-87.399767,2016
AL,Mitchell Dam,372569,Coosa,32.806025,-86.444892,2016
AL,Mobile Energy Services LLC,391430,Mobile,30.736487,-88.051643,2016
AL,Morgan Energy Center,4115273,Morgan,34.6397,-87.0639,2016
AL,Plant H. Allen Franklin,11670861,Lee,32.6078,-85.0975,2016
AL,Point A,14113,Covington,31.361146,-86.518307,2016
AL,"River Bend Solar, LLC",31261,Lauderdale,34.831511,-87.842204,2016
AL,Rock-Tenn Mill,228860,Marengo,32.4541,-87.9759,2016
AL,SABIC Innovative Plastics - Burkville,477109,Lowndes,32.310226,-86.52542,2016
AL,Sand Valley Power Station,27140,Dekalb,34.343875,-85.866103,2016
AL,Sloss Industries Corp,23726,Jefferson,33.568164,-86.79873,2016
AL,Tenaska Central Alabama Gen Station,5185641,Autauga,32.6497,-86.74,2016
AL,Tenaska Lindsay Hill Generating Station,2905517,Autauga,32.6514,-86.7386,2016
AL,Theodore Cogeneration,1272659,Mobile,30.525445,-88.128477,2016
AL,Thurlow Dam,200640,Elmore,32.535436,-85.887614,2016
AL,U S Alliance Coosa Pines,134783,Talladega,33.328107,-86.356825,2016
AL,US Steel (Fairfield Works),0,Jefferson,33.4885,-86.9212,2016
AL,Walter Bouldin Dam,468960,Elmore,32.583889,-86.283056,2016
AL,Walton Discover Power Facility,19268,LEE,32.54098,-85.038879,2016
AL,Washington County Cogen (Olin),718606,Washington,31.2504,-88.0156,2016
AL,Weiss Dam,164092,Cherokee,34.172142,-85.753806,2016
AL,Westervelt Moundville Cogen,39791,Hale,32.960714,-87.655419,2016
AL,Weyerhaeuser Pine Hill Operations,476045,Wilcox,31.9698,-87.4806,2016
AL,Wheeler Dam,1014935,Lawrence,34.8069,-87.3819,2016
AL,Widows Creek,,Jackson,34.883022,-85.755253,2016
AL,Wilson Dam,1809161,Lauderdale,34.79782,-87.62537,2016
AL,Yates Dam,116654,Elmore,32.5743,-85.8901,2016
AL,Yellowhammer Gas Plant,17476,MOBILE,30.403538,-88.12833,2016
AR,Archer Daniels Midland Little Rock,,Pulaski,34.7,-92.199722,2016
AR,Arkansas Nuclear One,13421022,Pope,35.311,-93.2351,2016
AR,Ashdown,573418,Little River,33.6417,-94.1083,2016
AR,Beaver Dam,164928,Carroll,36.421507,-93.847373,2016
AR,Blakely Mountain,223819,Garland,34.570984,-93.194425,2016
AR,Bull Shoals,875676,Marion,36.3635,-92.5763,2016
AR,Carl Bailey,16219,Woodruff,35.260102,-91.363426,2016
AR,Carpenter,70029,Garland,34.4425,-93.0262,2016
AR,Cecil Lynch,,Pulaski,34.7535,-92.1987,2016
AR,City Water & Light - City of Jonesboro,67723,Craighead,35.848561,-90.725377,2016
AR,Clearwater Paper APP CB,99202,Desha,33.7061,-91.2371,2016
AR,Columbia Flooring Melbourne,2289,Izard,36.060514,-91.919802,2016
AR,Dam 2,378865,Desha,33.986501,-91.315788,2016
AR,Dardanelle,664117,Pope,35.2503,-93.1686,2016
AR,Degray,106751,Clark,34.211913,-93.110963,2016
AR,Dell Power Plant,735515,Mississippi,35.8619,-90.0253,2016
AR,Elkins Generating Center,7805,Washington,35.9714,-94.0014,2016
AR,Ellis Hydro,138536,Crawford,35.351361,-94.294349,2016
AR,Flint Creek Power Plant,2041334,Benton,36.2561,-94.5241,2016
AR,Fourche Creek Wastewater,5571,Pulaski,34.6968,-92.165,2016
AR,Fulton,48100,Hempstead,33.6094,-93.7924,2016
AR,Genova Arkansas I LLC,,Washington,36.186111,-94.284166,2016
AR,Georgia-Pacific Crossett LLC,505600,Ashley,33.1421,-91.975,2016
AR,Greers Ferry Lake,198122,Cleburne,35.5207,-91.9953,2016
AR,Hamilton Moses,,St Francis,34.9806,-90.8722,2016
AR,Harry D. Mattison Power Plant,117273,Washington,36.1855,-94.2841,2016
AR,Harvey Couch,,Lafayette,33.3592,-93.4649,2016
AR,Hot Spring  Energy Facility,2964241,Hot Spring,34.29759,-92.868344,2016
AR,Independence,7704239,Independence,35.678442,-91.408761,2016
AR,John W. Turk Jr. Power Plant,3748751,Hempstead,33.649722,-93.811944,2016
AR,Lake Catherine,332156,Hot Spring,34.4341,-92.9049,2016
AR,Lee Creek Water Treatment Facility,0,Crawford,35.484488,-94.392858,2016
AR,Mabelvale,0,Pulaski,34.635997,-92.409602,2016
AR,Magnet Cove Generating Station,2046994,Hot Spring,34.4297,-92.8317,2016
AR,McClellan,61314,Ouachita,33.5648,-92.7917,2016
AR,Municipal Light,0,Clay,36.3858,-90.1867,2016
AR,Murray,147872,Pulaski,34.7956,-92.3569,2016
AR,Narrows (AR),46537,Pike,34.148427,-93.715168,2016
AR,Norfork,233281,Baxter,36.2491,-92.2401,2016
AR,Osceola (AR),0,Mississippi,35.6893,-89.994,2016
AR,Oswald Generating Station,519479,Pulaski,34.5923,-92.2166,2016
AR,Ozark,103533,Franklin,35.4693,-93.8175,2016
AR,Ozarks Natural Energy,1600,Washington,36.164296,-94.082269,2016
AR,Paragould,,Greene,36.060556,-90.521389,2016
AR,Paragould Reciprocating,354,Greene,36.0242,-90.5094,2016
AR,Paragould Turbine,41,Greene,36.024272,-90.509229,2016
AR,Pine Bluff Energy Center,1212971,Jefferson,34.2181,-91.9025,2016
AR,Pine Bluff Mill,414473,Jefferson,34.221213,-91.907365,2016
AR,Plum Point Energy Station,4605320,Mississippi,35.6644,-89.9489,2016
AR,Remmel,42767,Hot Spring,34.4272,-92.8941,2016
AR,Riceland Foods Cogeneration Plant,43440,Arkansas,34.5136,-91.5331,2016
AR,Robert E Ritchie,,Phillips,34.4629,-90.5987,2016
AR,SR Camden,24542,Calhoun,33.631538,-92.703611,2016
AR,Stuttgart Solar,,Arkansas,34.439722,-91.44,2016
AR,Thomas Fitzhugh,255902,Franklin,35.462382,-93.804926,2016
AR,Two Pine Landfill Gas Recovery,33799,Pulaski,34.8332,-92.157103,2016
AR,UA Central Utility Plant,37742,Washington,36.066336,-94.172254,2016
AR,Union Power Station,9459445,Union,33.296146,-92.589364,2016
AR,Warren Lumber Mill,0,Bradley,33.6206,-92.078889,2016
AR,Waste Management Eco Vista LFGTE,30837,Washington,36.140849,-94.259713,2016
AR,Whillock,169672,Conway,35.127591,-92.790273,2016
AR,White Bluff,5697538,Jefferson,34.4228,-92.1406,2016
AR,White River Lock and Dam 1,6005,Independence,35.757401,-91.636887,2016
AR,White River Lock and Dam 2,15966,Independence,35.744036,-91.765418,2016
AR,White River Lock and Dam 3,22334,Stone,35.84361,-91.850521,2016
AZ,Actus Lend Lease DMAFB,4481,Pima,32.1825,-110.863333,2016
AZ,Agua Caliente Solar Project,743533,Yuma,32.9774,-113.4945,2016
AZ,Agua Fria Generating Station,84854,Maricopa,33.5561,-112.2153,2016
AZ,Amonix UASTP Solar Power Station,1036,Pima,32.108147,-110.824662,2016
AZ,Amphitheater High School Solar,77,Pima,32.269,-110.975,2016
AZ,Apache Solar 1,,Cochise,32.068141,-109.890379,2016
AZ,Apache Station,2068779,Cochise,32.0603,-109.8931,2016
AZ,APS Saguaro Power Plant,15748,Pinal,32.5517,-111.3,2016
AZ,APS West Phoenix Power Plant,2570029,Maricopa,33.4417,-112.1583,2016
AZ,Arizona State University CHP,50187,Maricopa,33.417222,-111.928333,2016
AZ,Arizona Western College PV,9854,Yuma,32.687778,-114.49611,2016
AZ,Arlington Valley Energy Facility,1885829,Maricopa,33.3417,-112.8897,2016
AZ,Arlington Valley Solar Energy I,,Maricopa,33.321667,-112.880555,2016
AZ,Arlington Valley Solar Energy II,364396,Maricopa,33.305,-112.833888,2016
AZ,Avalon Solar,79764,Pima,32.001389,-110.960556,2016
AZ,Avalon Solar II,38231,Pima,32.000854,-110.958427,2016
AZ,Avra Valley Solar,74846,Pima,32.371667,-111.282777,2016
AZ,Badger 1,41342,Maricopa,33.498003,-112.813458,2016
AZ,Black Mountain Generating Station,56868,Mohave,35.0361,-114.1594,2016
AZ,Black Mountain Solar LLC,20652,Mohave,35.0227,-114.1627,2016
AZ,Bonnybrooke PV,12278,Pinal,33.053,-111.34,2016
AZ,"Buckeye Generation Center, LLC",,Maricopa,33.230833,-112.626389,2016
AZ,Buckeye Union HS District 201,7398,Maricopa,33.419167,-112.576111,2016
AZ,Canyon Del Oro High School Solar,15,Pima,32.374,-110.974,2016
AZ,Childs,,Yavapai,34.351111,-111.700556,2016
AZ,Chino Solar Valley,45734,Yavapai,34.71843,-112.42899,2016
AZ,Cholla,2432167,Navajo,34.9394,-110.3033,2016
AZ,Cogeneration 1,54338,Pima,32.229922,-110.952797,2016
AZ,Cogeneration 2,36816,Pima,32.240833,-110.948333,2016
AZ,Cogenra - TEP,2100,Pima,32.101944,-110.813333,2016
AZ,"Concord Blue Eagar, LLC",,Apache,34.11494,-109.37503,2016
AZ,Coolidge Generating Station,167696,Pinal,32.917399,-111.503327,2016
AZ,Copper Crossing Energy Center,,Pinal,33.15512,-111.483636,2016
AZ,Copper Crossing Solar LLC,54194,Gila,33.160601,-111.484011,2016
AZ,Coronado Generating Station,4924949,Apache,34.5789,-109.2708,2016
AZ,Cotton Center Solar,38993,Maricopa,33.034722,-112.661667,2016
AZ,Crosscut,,Maricopa,33.439375,-111.946052,2016
AZ,Davis Dam,1118857,Mohave,35.197044,-114.570669,2016
AZ,Davis Monthan AFB (AZ) West Airfield,,Pima,32.17356,-110.899734,2016
AZ,De Moss Petrie Generating Station,5324,Pima,32.252273,-110.992148,2016
AZ,Desert Basin Generating Station,1154728,Pinal,32.9042,-111.7889,2016
AZ,Dolan Springs,,Mohave,35.61,-114.26,2016
AZ,Douglas,84,Cochise,31.364122,-109.5538,2016
AZ,Dry Lake Solar,,Navajo,34.513333,-110.078333,2016
AZ,Dry Lake Wind II LLC,116380,Navajo,34.6062,-110.1734,2016
AZ,Dry Lake Wind LLC,112321,Navajo,34.6596,-110.2842,2016
AZ,FirstEnergy,,La Paz,33.935833,-113.555,2016
AZ,Foothills Solar Plant,96915,Yuma,32.64856,-114.428741,2016
AZ,Fort Huachuca Solar PV Project,31257,Cochise,31.555278,-110.35,2016
AZ,"Gato Montes Solar, LLC",9973,Pima,32.102778,-110.819722,2016
AZ,Gila Bend,102975,Maricopa,32.940833,-112.881389,2016
AZ,Gila Bend Power Generation Station,,Maricopa,32.985977,-112.811009,2016
AZ,Gila River Power Station,6909105,Maricopa,32.975,-112.6944,2016
AZ,"Gilbert Solar Facility I, LLC",4261,Maricopa,33.355862,-111.802355,2016
AZ,Gillespie 1,44136,Maricopa,33.026389,-112.665833,2016
AZ,Glen Canyon Dam,4016225,Coconino,36.936614,-111.483872,2016
AZ,Glendale Energy Power Plant,15475,Maricopa,33.540324,-112.306361,2016
AZ,Gray Hawk Solar,,Mohave,35.3635,-113.8978,2016
AZ,Griffith Energy Project,2086732,Mohave,35.054029,-114.133272,2016
AZ,Headgate Rock,75735,La Paz,34.168264,-114.277356,2016
AZ,Hoover Dam (AZ),1818612,Mohave,36.01551,-114.738006,2016
AZ,Horse Mesa,45429,Maricopa,33.5907,-111.344,2016
AZ,Hyder II,37104,Yuma,33.027,-113.3489,2016
AZ,Hyder Solar,40655,Yuma,33.02566,-113.34397,2016
AZ,Intel - Ocotillo Campus Solar,,Maricopa,33.243261,-111.892354,2016
AZ,IRC Generator Facility,-21,Coconino,36.9708,-112.5264,2016
AZ,Iron Horse Battery Storage,,Pima,32.098492,-110.819119,2016
AZ,Irving,,Yavapai,34.402222,-111.617222,2016
AZ,Irvington Generating Station,777277,Pima,32.16,-110.9047,2016
AZ,Jacobson 5 MW Solar,,Mohave,35.304528,-114.014747,2016
AZ,Jewish Community Center PV,2227,Maricopa,33.603056,-111.924722,2016
AZ,Kayenta Solar Project,,Navajo,36.771944,-110.263889,2016
AZ,Kingman 1,24935,Mohave,35.145833,-114.0675,2016
AZ,Kyrene Generating Station,1198000,Maricopa,33.3556,-111.9353,2016
AZ,La Paz Solar Tower,,La Paz,33.917222,-114.2675,2016
AZ,La Senita,2511,Mohave,35.241675,-114.004591,2016
AZ,Lake Pleasant WTP,15235,Maricopa,33.820556,-112.24,2016
AZ,Luke Solar,,Maricopa,33.526111,-112.37944,2016
AZ,Macys Goodyear,5315,Maricopa,33.409063,-112.414596,2016
AZ,Maricopa County Community Colleges- Estr,,Maricopa,33.409803,-112.340297,2016
AZ,Mesa Solar Array,0,Maricopa,33.346944,-111.603056,2016
AZ,Mesquite Generating Station,4487692,Maricopa,33.345,-112.864167,2016
AZ,Mesquite Solar 1,408250,Maricopa,33.341833,-112.904028,2016
AZ,"Mesquite Solar 2, LLC",13255,Maricopa,33.332777,-112.911388,2016
AZ,"Mesquite Solar 3, LLC",21060,Maricopa,33.347583,-112.936805,2016
AZ,Mohave Electric at Fort Mohave,14636,Mohave,34.9843,-114.5565,2016
AZ,Mormon Flat,22336,Maricopa,33.5536,-111.4431,2016
AZ,Navajo Generating Station,12058583,Coconino,36.9047,-111.3886,2016
AZ,"New Harquahala Generating Company, LLC",3373732,Maricopa,33.47596,-113.113434,2016
AZ,North Loop,934,Pima,32.401,-111.1262,2016
AZ,Northwest Regional,22767,Maricopa,33.681944,-112.476666,2016
AZ,Novo BioPower Plant,176574,Navajo,34.503158,-110.334953,2016
AZ,Ocotillo Power Plant,136005,Maricopa,33.4225,-111.9122,2016
AZ,Palo Verde,32377477,Maricopa,33.3881,-112.8617,2016
AZ,Paloma Solar,37662,Maricopa,33.021111,-112.661389,2016
AZ,Paradise Valley H.S. PV,2607,Maricopa,33.6416,-111.9997,2016
AZ,PB2 - Gila River,119891,Maricopa,32.975,-112.694444,2016
AZ,Perrin Ranch Wind LLC,222162,Coconino,35.415556,-112.271111,2016
AZ,Phoenix Airport East Economy Lot,2072,Maricopa,33.45,-111.98,2016
AZ,Phoenix Airport Rental Car Center,6495,Maricopa,33.45,-111.98,2016
AZ,"Picture Rocks Solar, LLC",55748,Pima,32.369722,-111.242778,2016
AZ,Pima Community College,,Pima,32.146142,-110.990639,2016
AZ,Pima Energy Storage System,,Pima,32.251647,-110.991333,2016
AZ,Prairie Fire,8886,Pima,32.116389,-110.82,2016
AZ,Prescott Airport,5432,Yavapai,34.6584,-112.4008,2016
AZ,Prescott Solar Plant,26142,Yavapai,34.649444,-112.4275,2016
AZ,Queen Creek Solar Farm,52143,Maricopa,33.2675,-111.612222,2016
AZ,RE Ajo 1 LLC,9224,Pima,32.367013,-112.831401,2016
AZ,RE Bagdad Solar I LLC,34860,Yavapai,34.585833,-113.177222,2016
AZ,Red Horse 2,220108,Cochise,32.286111,-110.088056,2016
AZ,Red Horse III,38278,Cochise,32.13597,-110.05129,2016
AZ,Red Rock,,Maricopa,32.551026,-111.289232,2016
AZ,Redhawk Generating Facility,5158899,Maricopa,33.334562,-112.840641,2016
AZ,Rio Rico Solar,11951,Santa Cruz,31.5,-111.008056,2016
AZ,Roger Road WWTP,1810,Pima,32.2894,-111.0331,2016
AZ,Roosevelt,58948,Maricopa,33.671104,-111.161786,2016
AZ,Saddle Mountain Solar I,47762,Maricopa,33.378333,-113.180833,2016
AZ,Sandstone Solar,121501,Pinal,33.035556,-111.430278,2016
AZ,Santan,2985179,Maricopa,33.3325,-111.7503,2016
AZ,Solana Generating Station,643670,Maricopa,32.922294,-112.95594,2016
AZ,South Consolidated,0,Maricopa,33.466477,-111.781064,2016
AZ,"South Point Energy Center, LLC",100404,Mohave,34.8678,-114.5317,2016
AZ,Springerville Generating Station,9147059,Apache,34.3186,-109.1639,2016
AZ,SR85,8924,Maricopa,33.145,-112.66,2016
AZ,Stewart Mountain,27419,Maricopa,33.5661,-111.536,2016
AZ,Sulphur Springs,4656,Cochise,32.0628,-109.919283,2016
AZ,"Sun Streams, LLC",,Maricopa,33.34884,-112.8348,2016
AZ,Sundance Power Plant,234372,Pinal,32.9285,-111.5899,2016
AZ,T0588 Phoenix - AZ,,Maricopa,33.447225,-112.217664,2016
AZ,TAA Solar Facility,,Pima,32.115833,-110.940833,2016
AZ,Tech Park Solar,13055,Pima,32.097884,-110.815696,2016
AZ,Tri Cities,,Maricopa,33.4833,-111.8172,2016
AZ,UASTP I,1402,Pima,32.096973,-110.8106,2016
AZ,UASTP II,8972,Pima,32.096973,-110.8106,2016
AZ,Union HS at Casa Grande,3404,Pinal,32.936944,-111.738611,2016
AZ,University of Arizona - Biosphere 2,49,Pinal,32.578011,-110.852608,2016
AZ,Valencia,620,Santa Cruz,31.363472,-110.931343,2016
AZ,Valencia Solar,23552,Pima,32.145833,-110.866944,2016
AZ,Vista Grande HS at Casa Grande,3095,Pinal,32.891389,-111.713056,2016
AZ,Waddell,42832,Maricopa,33.8447,-112.2714,2016
AZ,Walmart Casa Grande,3228,Pinal,32.866837,-111.771751,2016
AZ,Western Renewable Energy,,Apache,34.093006,-109.289979,2016
AZ,White Wing Solar,,Yuma,32.994056,-113.508806,2016
AZ,Yucca Power Plant,360704,Yuma,32.7214,-114.7106,2016
AZ,Yuma Cogeneration Associates,11206,Yuma,32.728822,-114.654053,2016
CA,1420 Coil Av #C,1592,Los Angeles,33.794283,-118.241405,2016
CA,2081 Terzian Solar Project,2601,Fresno,36.67,-119.415833,2016
CA,2097 Helton Solar Project,3798,Merced,37.352222,-120.506944,2016
CA,2127 Harris Solar Project,2712,Butte,39.291667,-121.669722,2016
CA,2555 E Olympic Bl,1780,Los Angeles,34.026944,-118.224167,2016
CA,85 A,16012,Kern,35.1011,-118.3372,2016
CA,85 B,20601,Kern,35.1011,-118.3372,2016
CA,A G Wishon,34315,Madera,37.15105,-119.504724,2016
CA,ABEC Bidart-Old River LLC,10899,Kern,35.169722,-119.105556,2016
CA,"Adelanto Solar II, LLC",17202,San Bernardino,34.557222,-117.3775,2016
CA,Adelanto Solar Project,16245,San Bernardino,34.550833,-117.435277,2016
CA,"Adelanto Solar, LLC",57181,San Bernardino,34.557222,-117.3775,2016
CA,Adera Solar,37763,Madera,37.120586,-120.32488,2016
CA,Adobe San Jose,8774,Santa Clara,37.330556,-121.893056,2016
CA,Aera San Ardo Cogen Facility,48917,Monterey,35.953293,-120.859952,2016
CA,Aera South Belridge Cogen Facility,,Kern,35.4292,-119.6864,2016
CA,Aerojet I,5725,Sacramento,38.613508,-121.162879,2016
CA,Aerojet II,3861,Sacramento,38.6086,-121.1703,2016
CA,AES Alamitos,889395,Los Angeles,33.7688,-118.1009,2016
CA,"AES ES ALAMITOS, LLC",,Los Angeles,33.770202,-118.099665,2016
CA,AES Huntington Beach,486191,Orange,33.6439,-117.9792,2016
CA,AES Redondo Beach,320555,Los Angeles,33.8504,-118.395,2016
CA,Agnews Power Plant,16640,Santa Clara,37.4058,-121.9272,2016
CA,Agua Mansa Power,6466,San Bernardino,34.0414,-117.3603,2016
CA,Aidlin Geothermal Power Plant,125286,Sonoma,38.8339,-122.881,2016
CA,Alameda,3574,Alameda,37.7886,-122.2889,2016
CA,Alamo,67000,Los Angeles,34.8158,-118.6867,2016
CA,Alamo Solar,52591,San Bernardino,34.682222,-117.3475,2016
CA,Algonquin Power Sanger LLC,120258,Fresno,36.6842,-119.5522,2016
CA,"Algonquin SKIC 10 Solar, LLC",,Kern,35.126111,-119.243361,2016
CA,Algonquin SKIC20 Solar LLC,45907,Kern,35.126111,-119.243333,2016
CA,Aliso Water Management Agency,6,Orange,33.537922,-117.70585,2016
CA,Almond Power Plant,111901,Stanislaus,37.5744,-120.985,2016
CA,Alpaugh 50,133296,Tulare,35.898333,-119.435278,2016
CA,Alpaugh North,52471,Tulare,35.9025,-119.442778,2016
CA,Alpine Solar,165117,Los Angeles,34.7892,-118.5047,2016
CA,Alta Mesa Project Phase IV,,Riverside,33.946389,-116.663333,2016
CA,Alta Powerhouse,3123,Placer,39.215979,-120.80355,2016
CA,Alta Wind Energy Center I,413363,Kern,35.033725,-118.353422,2016
CA,Alta Wind Energy Center II,360216,Kern,35.023889,-118.295278,2016
CA,Alta Wind Energy Center III,380465,Kern,35.023889,-118.295278,2016
CA,Alta Wind Energy Center IV,183393,Kern,35.008611,-118.242222,2016
CA,Alta Wind Energy Center V,293378,Kern,35.008611,-118.242222,2016
CA,Alta Wind VIII,294789,Kern,35.026683,-118.234811,2016
CA,Alta Wind X,364926,Kern,35.06,-118.2,2016
CA,Alta Wind XI,276368,Kern,35.065,-118.39,2016
CA,AltaGas Pomona Energy Inc.,3190,Los Angeles,34.059444,-117.774167,2016
CA,AltaGas Ripon Energy Inc.,10941,San Joaquin,37.732533,-121.116006,2016
CA,Altamont Gas Recovery,45492,Alameda,37.749308,-121.649866,2016
CA,Altamont Midway Ltd,,San Joaquin,37.7392,-121.4322,2016
CA,Altech III,30957,Riverside,33.915023,-116.555064,2016
CA,Alvarado Hydro Facility,,San Diego,32.7814,-117.0411,2016
CA,Amazon - Patterson PV,,Stanislaus,37.468888,-121.166326,2016
CA,Amazon San Bernardino,7923,San Bernardino,34.088408,-117.245839,2016
CA,Amedee Geothermal Venture I,0,Lassen,40.300833,-120.105,2016
CA,Ameresco Butte County,15857,Butte,39.674,-121.73,2016
CA,Ameresco Chiquita Canyon,48046,Los Angeles,34.431664,-118.642855,2016
CA,Ameresco Forward,32649,San Joaquin,37.883406,-121.185104,2016
CA,Ameresco Johnson Canyon,10460,Monterey,36.534167,-121.408611,2016
CA,Ameresco Keller Canyon,30295,Contra Costa,38.003928,-121.934491,2016
CA,Ameresco Ox Mountain,85387,San Mateo,37.5,-122.4,2016
CA,Ameresco San Joaquin,26786,San Joaquin,38.029722,-120.929722,2016
CA,Ameresco Santa Cruz Energy,19626,Santa Cruz,36.9178,-121.8156,2016
CA,Ameresco Vasco Road,33251,Alameda,37.754444,-121.728889,2016
CA,"American Kings Solar, LLC",,Kings,36.24,-119.898,2016
CA,Ampersand Chowchilla Biomass LLC,68912,Madera,37.106668,-120.248504,2016
CA,Anaheim Combustion Turbine,123093,Orange,33.853542,-117.856286,2016
CA,Anaheim Solar Energy Plant,3389,Orange,33.8025,-117.919722,2016
CA,Angels,5833,Calaveras,38.071944,-120.539444,2016
CA,Anheuser-Busch #2,3936,Solano,38.233611,-122.0925,2016
CA,Antelope Big Sky Ranch,17070,Los Angeles,34.694839,-118.28769,2016
CA,Antelope DSR 1,6690,Los Angeles,34.655556,-118.280722,2016
CA,Antelope DSR 2,1388,Los Angeles,34.686944,-118.311722,2016
CA,Antelope DSR 3,,Los Angeles,34.736859,-118.304071,2016
CA,Antelope Expansion 2,,Los Angeles,34.744977,-118.309153,2016
CA,"AP North Lake I, LP",,Riverside,33.74,-117.010556,2016
CA,Apple Campus 2 Fuel Cell,,Santa Clara,37.33,-122.01,2016
CA,Apple Campus 2 PV,,Santa Clara,37.33,-122.01,2016
CA,Argus Cogen Plant,325958,San Bernardino,35.765,-117.3833,2016
CA,Arrache 4006,2835,Los Angeles,34.655,-118.051111,2016
CA,Arrache 4013,4410,Los Angeles,34.650556,-118.051944,2016
CA,Arrache 8083,3567,Los Angeles,34.647778,-118.061111,2016
CA,Aspiration G,,Fresno,36.552186,-120.352481,2016
CA,ASTI,1541,Sonoma,38.761389,-122.975278,2016
CA,AT&T Anaheim,2728,Orange,33.836439,-117.916893,2016
CA,AT&T Holger,4229,Santa Clara,37.417638,-121.94453,2016
CA,Atwell Island,41255,Tulare,35.895,-119.510833,2016
CA,Atwell Island West Solar,56979,Tulare,35.815,-119.459722,2016
CA,AV Solar Ranch One,614294,Los Angeles,34.780278,-118.42444,2016
CA,Avenal Park,12761,Kings,35.989722,-120.11,2016
CA,AVS Lancaster 1,0,Los Angeles,34.748894,-117.973571,2016
CA,Azusa,0,Los Angeles,34.1548,-117.9093,2016
CA,B Braun Medical,36550,Orange,33.688721,-117.834793,2016
CA,Badger Creek Limited,3339,Kern,35.483736,-119.029856,2016
CA,Baker Creek Hydroelectric,4085,Humboldt,40.526389,-123.725556,2016
CA,Bakersfield 111,3323,Kern,35.317551,-118.989894,2016
CA,Bakersfield College Solar 01,2046,Kern,35.411817,-118.96864,2016
CA,Bakersfield Industrial PV 1,,Kern,35.330032,-118.993119,2016
CA,Bakersfield PV 1,,Kern,35.324982,-118.981522,2016
CA,Balch 1,132644,Fresno,36.909137,-119.087712,2016
CA,Balch 2,331916,Fresno,36.908907,-119.087556,2016
CA,Barre Generating Station,28750,Orange,33.8073,-117.9832,2016
CA,"Bayshore Solar A, LLC",,Los Angeles,34.667817,-118.298089,2016
CA,"Bayshore Solar B, LLC",,Los Angeles,34.678305,-118.302649,2016
CA,"Bayshore Solar C, LLC",,Los Angeles,34.681338,-118.314087,2016
CA,Beacon BESS 1,,Kern,35.256526,-118.027519,2016
CA,Beacon Solar Plant Site 2,,Kern,35.265833,-117.999167,2016
CA,Beacon Solar Plant Site 5,,Kern,35.248889,-118.034444,2016
CA,Bear Canyon Power Plant,,Lake,38.762968,-122.692915,2016
CA,Bear Creek,6078,Shasta,40.534454,-121.959109,2016
CA,Bear Creek Solar,3722,San Joaquin,38.136389,-121.148889,2016
CA,Bear Mountain Limited,8073,Kern,35.419181,-118.926643,2016
CA,Bear Valley,806,San Diego,33.166246,-117.016566,2016
CA,Bear Valley Power Plant,-36,San Bernardino,34.2506,-116.9025,2016
CA,Beardsley,68443,Tuolumne,38.202569,-120.076983,2016
CA,Belden,181578,Plumas,40.007445,-121.249438,2016
CA,Beringer,1629,Sonoma,38.510833,-122.479722,2016
CA,Berry Cogen,310119,Kern,35.093046,-119.443617,2016
CA,Berry Cogen Tanne Hills 18,135146,Kern,35.089829,-119.440881,2016
CA,Berry Placerita Cogen,304058,Los Angeles,34.38407,-118.494882,2016
CA,Bidwell Ditch Project,10103,Shasta,40.8014,-121.4481,2016
CA,Big Creek 1,282180,Fresno,37.2042,-119.2396,2016
CA,Big Creek 2,332639,Fresno,37.2,-119.3069,2016
CA,Big Creek 2A,359244,Fresno,37.200062,-119.30681,2016
CA,Big Creek 3,763372,Fresno,37.148517,-119.386623,2016
CA,Big Creek 4,378638,Madera,37.139,-119.4898,2016
CA,Big Creek 8,212772,Fresno,37.2096,-119.3289,2016
CA,Big Creek Water Works,10436,Trinity,40.646733,-123.498008,2016
CA,Big Pine Creek,1484,Inyo,37.142795,-118.324075,2016
CA,Big Valley Power LLC,,Lassen,41.1325,-121.137222,2016
CA,Biola University,12885,Los Angeles,33.906953,-118.013105,2016
CA,Bishop Creek 2,24861,Inyo,37.273581,-118.573339,2016
CA,Bishop Creek 3,22880,Inyo,37.301962,-118.531957,2016
CA,Bishop Creek 4,23688,Inyo,37.323035,-118.501714,2016
CA,Bishop Creek 5,10842,Inyo,37.3344,-118.4797,2016
CA,Bishop Creek 6,8024,Inyo,37.3499,-118.4628,2016
CA,Black Butte,9463,Tehama,39.814905,-122.332335,2016
CA,Black Rock I,,Imperial,33.1594,-115.6144,2016
CA,Black Rock II,,Imperial,33.1594,-115.6144,2016
CA,Black Rock III,,Imperial,33.1594,-115.6144,2016
CA,Blacksand Generating Facility,28518,Orange,33.9328,-117.855,2016
CA,Blackwell Solar Park,,Kern,35.604167,-119.849722,2016
CA,Blue Lake Power LLC,50,Humboldt,40.8786,-123.9942,2016
CA,Blythe Energy,862724,Riverside,33.6157,-114.6865,2016
CA,"Blythe Solar 110, LLC",211331,Riverside,33.68,-114.742,2016
CA,"Blythe Solar II, LLC",101510,Riverside,33.68,-114.73,2016
CA,"Blythe Solar III, LLC",,Riverside,33.656,-114.742,2016
CA,"Blythe Solar IV, LLC",,Riverside,33.682,-114.768,2016
CA,Bolthouse S&P and Rowen Farms Solar,3778,Los Angeles,34.5644,-117.6933,2016
CA,Borden Solar Farm,,Madera,36.941111,-119.96,2016
CA,Borel,-218,Kern,35.588069,-118.524804,2016
CA,Borrego Springs Energy Storage,-111,San Diego,33.27011,-116.3496,2016
CA,Bottle Rock Power,0,Lake,38.8348,-122.7677,2016
CA,"Bowerman Power LFG, LLC",107803,Orange,33.718889,-117.702222,2016
CA,Bowman,14700,Nevada,39.448352,-120.653417,2016
CA,Box Canyon Dam,23912,Siskiyou,41.2792,-122.3292,2016
CA,BP Carson Refinery,0,Los Angeles,33.8153,-118.2358,2016
CA,Bradley Gas Recovery,,Los Angeles,34.2356,-118.3806,2016
CA,Brawley,,Imperial,32.968889,-115.534444,2016
CA,Brea Expansion Plant,249613,Orange,33.932022,-117.840233,2016
CA,Britton Powerhouse,,Shasta,41.021389,-121.675,2016
CA,Broadridge Cogen,12618,El Dorado,38.6183,-121.0564,2016
CA,Broadway,25680,Los Angeles,34.1254,-118.148,2016
CA,Brookfield Tehachapi 1,286428,Kern,35.008333,-118.241389,2016
CA,Buckeye Geothermal Power Plant,,Lake,38.8242,-122.84,2016
CA,Bucks Creek,260393,Plumas,39.91062,-121.327692,2016
CA,Buena Vista Biomass Power,17414,Amador,38.277778,-120.913611,2016
CA,Buena Vista Energy LLC,94980,Contra Costa,37.805,-121.6672,2016
CA,Buidling L,57,Los Angeles,33.912917,-118.041944,2016
CA,Building F,71,Los Angeles,33.914356,-118.050189,2016
CA,Building G,86,Los Angeles,33.912917,-118.050561,2016
CA,Burney Creek,7147,Shasta,40.8579,-121.7225,2016
CA,Burney Forest Products,209592,Shasta,40.879719,-121.720342,2016
CA,Burney Mountain Power,,Shasta,40.909483,-121.640368,2016
CA,Butt Valley,76608,Plumas,40.175656,-121.190663,2016
CA,Butte College Main Campus Solar,5092,Butte,39.648056,-121.644167,2016
CA,C P Kelco San Diego Plant,88980,San Diego,32.6947,-117.1436,2016
CA,C&H Sugar Plant,43070,Contra Costa,38.057222,-122.218889,2016
CA,CA Department of Public Health at Richmo,,Contra Costa,37.92,-122.344,2016
CA,"CA Flats Solar 130, LLC",,San Luis Obispo,35.615573,-120.404352,2016
CA,"CA Flats Solar 150, LLC",,San Luis Obispo,35.615573,-120.404352,2016
CA,Cabazon Wind Farm,57869,Riverside,33.914986,-116.71026,2016
CA,Cabazon Wind Partners,116855,Riverside,33.9172,-116.735,2016
CA,Cabrillo Power I Encina Power Station,287880,San Diego,33.1361,-117.3364,2016
CA,Calabasas Gas to Energy Facility,34529,Los Angeles,34.1511,-118.7236,2016
CA,California Dairy Energy I LLC,,Tulare,36.295,-119.416667,2016
CA,California Institute of Technology,80571,Los Angeles,34.138467,-118.1256,2016
CA,California PV Energy at ISD WWTP,2193,Contra Costa,38.001111,-121.703889,2016
CA,California State University San Bernardi,6710,San Bernardino,34.185833,-117.324167,2016
CA,California Valley Solar Ranch,679796,San Luis Obispo,35.323739,-119.91663,2016
CA,Calipatria Solar Farm,45140,Imperial,33.165833,-115.532222,2016
CA,Calistoga Power Plant,557649,Lake,38.7879,-122.7434,2016
CA,CalPeak Power - Border,11404,San Diego,32.562448,-116.943869,2016
CA,CalPeak Power - Enterprise,12176,San Diego,33.121943,-117.117441,2016
CA,CalPeak Power - Panoche,26076,Fresno,36.6535,-120.5783,2016
CA,CalPeak Power - Vaca Dixon,13758,Solano,38.398867,-121.923973,2016
CA,"Calpine Gilroy Cogen, LP",141393,Santa Clara,37.0001,-121.5367,2016
CA,Calpine Sutter Energy Center,120,Sutter,39.053139,-121.695873,2016
CA,CalRenew-1,9358,Fresno,36.7575,-120.3658,2016
CA,Caltech Central,8,Los Angeles,34.1358,-118.1267,2016
CA,Camanche,16549,San Joaquin,38.2268,-121.0245,2016
CA,Cameron Ridge LLC,173868,Kern,35.075,-118.3158,2016
CA,Camino,404004,El Dorado,38.82881,-120.537089,2016
CA,Camp Far West,27711,Placer,39.048802,-121.316966,2016
CA,Campo Verde Solar,362327,Imperial,32.753333,-115.726389,2016
CA,Cantua Solar Station,43802,Fresno,36.425085,-120.343543,2016
CA,Canyon Crest Academy,3,San Diego,32.95907,-117.191622,2016
CA,Canyon Power Plant,123094,Orange,33.858056,-117.861667,2016
CA,Caribou 1,85487,Plumas,40.085476,-121.148241,2016
CA,Caribou 2,307410,Plumas,40.085997,-121.149373,2016
CA,Carlsbad Energy Center,,San Diego,33.14,-117.333611,2016
CA,Carson Cogeneration,380261,Sacramento,38.445681,-121.462387,2016
CA,Carson Cogeneration Company,37159,Los Angeles,33.8759,-118.2491,2016
CA,Cascade Solar,52502,San Bernardino,34.157222,-116.234444,2016
CA,Castaic,378922,Los Angeles,34.587237,-118.656638,2016
CA,Castle Rock Vineyards,1733,Tulare,35.801111,-119.110556,2016
CA,Castor Solar,1457,Kern,35.211044,-119.387258,2016
CA,"Catalina Solar 2, LLC",56517,Kern,34.812222,-118.352778,2016
CA,Catalina Solar LLC,269368,Kern,34.938261,-118.334492,2016
CA,CBS Studio Center,9496,Los Angeles,34.145,-118.390833,2016
CA,CBS Television City,2553,Los Angeles,34.075,-118.36,2016
CA,CCCSD Wastewater Treatment Plnt,19351,Contra Costa,37.9978,-122.0697,2016
CA,CDCR (CA) - Pleasant Valley State Prison,3766,Fresno,36.137219,-120.224445,2016
CA,CE Leathers,298724,Imperial,33.1779,-115.565,2016
CA,CE Turbo LLC,79721,Imperial,33.1669,-115.5114,2016
CA,CE&P Imperial Valley 1,,Imperial,32.912778,-115.518333,2016
CA,CED Avenal,,Kings,35.996324,-120.15146,2016
CA,CED Ducor 1,2193,Tulare,35.856278,-119.068414,2016
CA,CED Ducor 2,1978,Tulare,35.844167,-119.068069,2016
CA,CED Ducor 3,1396,Tulare,35.845378,-119.056992,2016
CA,CED Ducor 4,1652,Tulare,35.850403,-119.026992,2016
CA,Center Generating Station,27378,Los Angeles,33.9296,-118.1046,2016
CA,Centerville PH,,Butte,39.788877,-121.657383,2016
CA,Centinela Solar Energy,484764,Imperial,32.686944,-115.647778,2016
CA,Central Antelope Dry Ranch B LLC,,Los Angeles,34.705549,-118.301417,2016
CA,Central Antelope Dry Ranch C,28606,Los Angeles,34.720499,-118.30046,2016
CA,Central Utilities Plant LAX,,Los Angeles,33.943965,-118.40425,2016
CA,Central Utilities Plant LAX 2,30745,Los Angeles,33.943889,-118.404167,2016
CA,Central Valley Ag Power,130,Stanislaus,37.719722,-120.898611,2016
CA,Century Generating Facility,1060,San Bernardino,34.0606,-117.3533,2016
CA,CES Placerita Power Plant,,Los Angeles,34.3801,-118.4999,2016
CA,Chalk Cliff Limited,3411,Kern,35.0968,-119.4299,2016
CA,Chalk Mountain Powerhouse,,Shasta,40.988056,-121.768333,2016
CA,Chicago Park,161362,Nevada,39.177903,-120.890856,2016
CA,Childrens Hospital,27372,San Diego,32.7992,-117.1517,2016
CA,Chili Bar,32350,El Dorado,38.771764,-120.813239,2016
CA,Chowchilla II,23217,Madera,37.1073,-120.2485,2016
CA,Chuckawalla Solar,9016,Riverside,33.568333,-114.918056,2016
CA,Chuckawalla Valley State Prison,3184,Riverside,33.565329,-114.903629,2016
CA,Chula Vista Energy Center,4847,San Diego,32.591667,-117.058611,2016
CA,"CID Solar, LLC",53664,Kings,36.138056,-119.564722,2016
CA,Citizen B,12260,Fresno,36.723806,-120.432139,2016
CA,City of Hayward WWTP,10968,Alameda,37.633526,-122.139717,2016
CA,City of Madera WWTP,2164,Madera,36.9408,-120.1572,2016
CA,City of Palo Alto,22,Santa Clara,37.4383,-122.1094,2016
CA,City of Soledad Water Reclamation,4291,Monterey,36.421111,-121.340278,2016
CA,City of Tulare Water Facility,4922,Tulare,36.185,-119.375,2016
CA,Civic Center,138771,Los Angeles,34.0564,-118.2436,2016
CA,Clear Lake Hydro Project,,Lake,38.923556,-122.56668,2016
CA,Clearwater Power Plant,23508,Riverside,33.8912,-117.6085,2016
CA,Cloverdale Solar Center,,Sonoma,38.769581,-123.020724,2016
CA,Cloverdale Solar I,2245,Sonoma,38.773056,-123.017778,2016
CA,Coachella,910,Riverside,33.6758,-116.1714,2016
CA,Coal Canyon,,Butte,39.605043,-121.600525,2016
CA,Coalinga 25D Cogen,73836,Fresno,36.1556,-120.3972,2016
CA,Coalinga 6C Cogen,,Fresno,36.2097,-120.3828,2016
CA,Coalinga Cogeneration Facility,256666,Fresno,36.1807,-120.3885,2016
CA,Coalinga Cogeneration Facility,51620,Fresno,36.170317,-120.364084,2016
CA,Coca Cola American Canyon,3,Napa,38.190705,-122.275067,2016
CA,Cold Canyon 1,10412,San Luis Obispo,35.186667,-120.599444,2016
CA,Coleman PH,47515,Shasta,40.404645,-122.121904,2016
CA,Colgate,1052713,Yuba,39.330833,-121.191666,2016
CA,Colgreen North Shore Solar Farm,,Riverside,33.540124,-115.974771,2016
CA,Collierville Powerhouse,460788,Calaveras,38.144636,-120.380497,2016
CA,Collins Pine Project,9354,Plumas,40.303422,-121.244431,2016
CA,Colon PV,2188,Los Angeles,33.792694,-118.252407,2016
CA,"Colton Solar One, LLC",4940,San Bernardino,34.093333,-117.319444,2016
CA,"Colton Solar Two, LLC",2108,San Bernardino,34.042222,-117.361667,2016
CA,Columbia 3,26450,Kern,35.024722,-118.164167,2016
CA,"Columbia Solar Energy, LLC",40794,Contra Costa,38.019671,-121.86506,2016
CA,Colusa Generating Station,2909398,Colusa,39.3661,-122.27,2016
CA,Combie South,7927,Nevada,39.0096,-121.0591,2016
CA,Commerce Refuse To Energy,79508,Los Angeles,33.9949,-118.1538,2016
CA,Community Solar 1,13953,Imperial,32.982778,-115.481944,2016
CA,Con Dios Solar 11,,San Bernardino,34.26,-116.335278,2016
CA,Con Dios Solar 3,,San Bernardino,34.259722,-116.340278,2016
CA,Contra Costa,,Contra Costa,38.0192,-121.7642,2016
CA,Control Gorge,37040,Inyo,37.437921,-118.556988,2016
CA,Coolwater,,San Bernardino,34.8606,-116.8539,2016
CA,Copco 1,80964,Siskiyou,41.978914,-122.335317,2016
CA,Copco 2,104792,Siskiyou,41.975716,-122.358127,2016
CA,Coram Energy LLC,11855,Kern,35.075,-118.3417,2016
CA,Coram Energy LLC (ECT),28310,Kern,35.0583,-118.3417,2016
CA,Coram Tehachapi,14093,Kern,35.0663,-118.339444,2016
CA,Corcoran,2022,Kings,36.102307,-119.566516,2016
CA,Corcoran Solar,51179,Kings,36.138333,-119.573333,2016
CA,Corcoran Solar 2,50862,Kings,36.141944,-119.581667,2016
CA,Corcoran Solar 3,53413,Kings,36.15042,-119.58542,2016
CA,Corona,20224,Riverside,33.85895,-117.6106,2016
CA,"Corona Energy Partners, Ltd",131696,Riverside,33.8827,-117.5565,2016
CA,Coronal Lost Hills,52623,Kern,35.726667,-119.905833,2016
CA,Coronus Adelanto West 1,3126,San Bernardino,34.548056,-117.464444,2016
CA,Coronus Adelanto West 2,3201,San Bernardino,34.548056,-117.464444,2016
CA,Coso Energy Developers,267151,Inyo,36.0019,-117.7886,2016
CA,Coso Finance Partners,484689,Inyo,36.0372,-117.7981,2016
CA,Coso Power Developers,473756,Inyo,36.0192,-117.7917,2016
CA,Cosumnes Power Plant,3859086,Sacramento,38.338475,-121.123978,2016
CA,Cottonwood,1613,Inyo,36.443421,-118.04389,2016
CA,"Cottonwood Solar, LLC (City of Corcoran)",29661,Kings,36.134444,-119.554444,2016
CA,"Cottonwood Solar, LLC (Goose Lake)",35207,Kern,35.593611,-119.58,2016
CA,"Cottonwood Solar, LLC Cottonwood Carport",828,Marin,38.129759,-122.568158,2016
CA,Covanta Delano Energy,0,Kern,35.7144,-119.2337,2016
CA,Covanta Mendota,0,Fresno,36.755896,-120.365422,2016
CA,Covanta Stanislaus Energy,152532,Stanislaus,37.3853,-121.141,2016
CA,Cove Hydroelectric,16568,Shasta,40.8713,-121.9487,2016
CA,Cow Creek,6813,Shasta,40.570817,-122.02093,2016
CA,Coyote Creek,5858,Orange,33.92493,-117.95517,2016
CA,Crafton Hills College Solar Farm,1806,San Bernardino,34.043056,-117.098889,2016
CA,Crazy Horse Solar Project,,Monterey,36.803269,-121.618971,2016
CA,Creed Energy Center,8501,Solano,38.242158,-121.854722,2016
CA,Cresta,250939,Butte,39.825907,-121.409687,2016
CA,Crockett Cogen Project,1399248,Contra Costa,38.0569,-122.2161,2016
CA,Crown Cooling Facility,1325,Imperial,32.967222,-115.5325,2016
CA,CSD 2 - Heritage High,2167,Contra Costa,37.921944,-121.755556,2016
CA,CSD 2- Freedom High,1661,Contra Costa,37.969722,-121.719444,2016
CA,CSU East Bay,3666,Alameda,37.658889,-122.059444,2016
CA,CSU Fresno Solar Project,1445,Fresno,36.809841,-119.741665,2016
CA,CSU Northridge Plant,7055,Los Angeles,34.243333,-118.530556,2016
CA,CSUCI Site Authority,170798,Ventura,34.161951,-119.047916,2016
CA,CSUF Nutwood Solar,17,Orange,33.87912,-117.8887,2016
CA,CSUF State College,14,Orange,33.87912,-117.8887,2016
CA,CSUF Trigeneration,32163,Orange,33.880638,-117.88656,2016
CA,CTV Power Purchase Contract Trust,10620,Kern,35.0583,-118.3083,2016
CA,"Cuyama Solar, LLC",,Santa Barbara,34.901,-119.596,2016
CA,Cuyamaca Peak Energy,8176,San Diego,32.796491,-116.972071,2016
CA,Cymric 31X Cogen,45824,Kern,35.3639,-119.6592,2016
CA,Cymric 36W Cogen,75396,Kern,35.3633,-119.6756,2016
CA,Cymric 6Z Cogen,45643,Kern,35.346102,-119.643431,2016
CA,De Sabla,49393,Butte,39.869265,-121.631819,2016
CA,Deadwood Creek,3330,Yuba,39.53,-121.095833,2016
CA,Deer Creek PH,15919,Nevada,39.29807,-120.8443,2016
CA,Del Ranch Company,302960,Imperial,33.1646,-115.616,2016
CA,"Delano Energy Center, LLC",11715,Tulare,35.790864,-119.294469,2016
CA,Delano Land 1,,Kern,35.761217,-119.344408,2016
CA,"Delta Energy Center, LLC",3421553,Contra Costa,38.0169,-121.8439,2016
CA,Depot Park Solar System,5263,Sacramento,38.515,-121.398333,2016
CA,Dept of General Services -FTB,,Sacramento,38.565,-121.343,2016
CA,Desert Green Solar Farm LLC,14189,San Diego,33.27055,-116.34805,2016
CA,Desert Hot Springs Solar,6329,Riverside,33.923056,-116.53,2016
CA,Desert Quartzite,,Riverside,33.565,-114.753,2016
CA,"Desert Sunlight 250, LLC",623742,Riverside,33.8055,-115.3947,2016
CA,"Desert Sunlight 300, LLC",722540,Riverside,33.823056,-115.393889,2016
CA,Desert View Power,332818,Riverside,33.586,-116.0873,2016
CA,DESI-1 Battery Energy Storage Facility,,Orange,33.799248,-117.873371,2016
CA,Devil Canyon,876777,San Bernardino,34.2056,-117.3344,2016
CA,DGS Central Utility Plant,29,Sacramento,38.573889,-121.501389,2016
CA,Diablo Canyon,18907578,San Luis Obispo,35.211536,-120.855542,2016
CA,Diablo Wind LLC,63351,Alameda,37.763653,-121.614392,2016
CA,Diamond Valley Lake,1664,Riverside,33.6808,-117.0698,2016
CA,Diamond Valley Solar Project,2490,Riverside,33.713056,-117.0725,2016
CA,Difwind Farms Ltd I,11859,Riverside,33.898856,-116.57281,2016
CA,Difwind Farms Ltd II,6475,Riverside,33.893685,-116.567811,2016
CA,Difwind Farms Ltd V,13937,Riverside,33.887401,-116.578231,2016
CA,Difwind Farms Ltd VI,37610,Kern,35.0506,-118.1714,2016
CA,Difwind Farms Ltd VII,,Alameda,37.7581,-121.5253,2016
CA,Difwind Farms Ltd VIII,,Kern,35.0506,-118.1714,2016
CA,Dillon Wind LLC,142584,Riverside,33.9393,-116.5527,2016
CA,Dinosaur Point,,Merced,37.0478,-121.1708,2016
CA,Dinuba Energy,0,Tulare,36.571485,-119.419176,2016
CA,Dinuba Wastewater Treatment Plant,1803,Tulare,36.538056,-119.426388,2016
CA,Dion R Holm,648323,Tuolumne,37.896649,-119.9675,2016
CA,Division,,San Diego,32.681667,-117.120277,2016
CA,Division 1,3223,Los Angeles,34.708333,-118.130556,2016
CA,Division 2,2058,Los Angeles,34.708333,-118.130556,2016
CA,Division 3,2072,Los Angeles,34.708333,-118.130556,2016
CA,Dome Project,49238,Kern,35.220833,-119.583056,2016
CA,Dominguez Plant,1244,Los Angeles,33.8431,-118.2347,2016
CA,Don Pedro,224070,Tuolumne,37.695994,-120.420152,2016
CA,Donald Von Raesfeld,934537,Santa Clara,37.3767,-121.9508,2016
CA,Donnells,347220,Tuolumne,38.246656,-120.034072,2016
CA,Double C Generation Limited Partnership,10466,Kern,35.5005,-119.046,2016
CA,Drews Generating Facility,1515,San Bernardino,34.0609,-117.3532,2016
CA,Drop 1,12398,Imperial,32.711611,-114.942666,2016
CA,Drop 2 (CA),45727,Imperial,32.705435,-115.030975,2016
CA,Drop 3 (CA),46355,Imperial,32.705428,-115.126103,2016
CA,Drop 4,93218,Imperial,32.705341,-115.219067,2016
CA,Drop 5,13508,Imperial,32.673097,-115.392026,2016
CA,Drum 1,157038,Placer,39.256873,-120.767437,2016
CA,Drum 2,246250,Placer,39.257388,-120.767046,2016
CA,DSH (CA) - Coalinga State Hospital,3817,Fresno,36.13726,-120.218453,2016
CA,DTE Stockton,349636,San Joaquin,37.943633,-121.330433,2016
CA,Dulles,553,Riverside,34.030119,-117.517753,2016
CA,Dutch Flat,93409,Placer,39.216985,-120.835587,2016
CA,Dutch Flat 2,90867,Nevada,39.2184,-120.8352,2016
CA,Dutch Wind Energy,18800,Riverside,33.8942,-116.5603,2016
CA,Dyer Road,,San Joaquin,37.7392,-121.4322,2016
CA,Dynegy Oakland Power Plant,5625,Alameda,37.79675,-122.28185,2016
CA,E F Oxnard Energy Facility,162322,Ventura,34.1958,-119.1664,2016
CA,E&B Resources,2269,Kern,35.534584,-119.060029,2016
CA,EAFB - North Base,2666,Kern,34.9325,-117.907222,2016
CA,EAFB - South Base,2556,Kern,34.917222,-117.900278,2016
CA,East Highline,2970,Imperial,32.699451,-115.28245,2016
CA,East Portal Generator,5086,Los Angeles,34.2619,-118.6242,2016
CA,East Winds Project,7125,Riverside,33.890913,-116.541515,2016
CA,EDF Renewable Windfarm V Inc,26039,Solano,38.1167,-121.8333,2016
CA,Edom Hills Project 1 LLC,44987,Riverside,33.881667,-116.460278,2016
CA,Edward C Hyatt,1703427,Butte,39.542985,-121.492188,2016
CA,Edwards Air Force Base,2790,Kern,34.9077,-117.9206,2016
CA,El Cajon,801,San Diego,32.7958,-116.9722,2016
CA,El Cajon Energy Center,10340,San Diego,32.796106,-116.972073,2016
CA,El Cajon Energy Storage,,San Diego,32.8115,-117.050546,2016
CA,El Centro,1032735,Imperial,32.802222,-115.54,2016
CA,El Dorado,61247,El Dorado,38.793574,-120.619152,2016
CA,El Nido Facility,74601,Merced,37.1867,-120.4903,2016
CA,El Segundo,1184687,Los Angeles,33.910556,-118.425,2016
CA,El Segundo Cogen,1392040,Los Angeles,33.9058,-118.4031,2016
CA,El Sobrante Gas Recovery,10829,Riverside,33.793842,-117.475112,2016
CA,ELACC Photovoltaic Power Facility,521,Los Angeles,34.040278,-118.148056,2016
CA,Eland 1 Solar Farm,,Kern,35.2237,-117.977,2016
CA,Eland 2 Solar Farm,,Kern,35.2167,-117.977,2016
CA,Electra,434128,Amador,38.330985,-120.669901,2016
CA,Elevation Solar C,9046,Los Angeles,34.730263,-118.30425,2016
CA,Elk Hills Cogen,53543,Kern,35.479146,-119.737464,2016
CA,Elk Hills Power,3442847,Kern,35.280318,-119.470707,2016
CA,Ellwood,3939,Santa Barbara,34.431419,-119.900055,2016
CA,Elmore Company,305377,Imperial,33.1777,-115.6033,2016
CA,Encina Water Pollution Control,12885,San Diego,33.1165,-117.3215,2016
CA,Energy Center,7262,San Bernardino,34.063056,-117.163889,2016
CA,Energy Nuevo Storage Farm,,Fresno,36.702036,-119.883003,2016
CA,Enerparc CA1 LLC,3604,San Benito,36.831667,-121.404167,2016
CA,"Enerparc CA2, LLC",3296,Glenn,39.69898,-122.175583,2016
CA,Equilon Los Angeles Refining,495206,Los Angeles,33.791667,-118.234722,2016
CA,Equinix San Jose,8755,Santa Clara,37.241713,-121.781363,2016
CA,"Escondido Energy Center, LLC",31846,San Diego,33.1261,-117.1172,2016
CA,Escondido Energy Storage,,San Diego,33.124446,-117.114274,2016
CA,ESI Project,,Alameda,37.739167,-121.432222,2016
CA,Etiwanda,0,San Bernardino,34.10345,-117.5257,2016
CA,Etiwanda Generating Station,156364,San Bernardino,34.09118,-117.52663,2016
CA,Exchequer,148222,Mariposa,37.584345,-120.26859,2016
CA,Exeter Solar,6956,Tulare,36.2675,-119.128581,2016
CA,Expressway Solar A,4985,San Bernardino,34.582222,-117.341667,2016
CA,Expressway Solar B,4427,San Bernardino,34.583333,-117.340278,2016
CA,Expressway Solar C2,3737,San Bernardino,34.584444,-117.341389,2016
CA,ExxonMobil Santa Ynez Facility,,Santa Barbara,34.464819,-120.044365,2016
CA,FAA NorCal TRACON,4376,Sacramento,38.559533,-121.257556,2016
CA,Fairhaven Power,68637,Humboldt,40.7995,-124.2028,2016
CA,Fall Creek,10146,Siskiyou,41.985605,-122.360455,2016
CA,Fallbrook Energy Storage,,San Diego,33.384244,-117.235322,2016
CA,Farad,,Nevada,39.394267,-120.021732,2016
CA,Farmersville,8804,Tulare,36.19,-119.12,2016
CA,Feather River Energy Center,26059,Sutter,39.109344,-121.60931,2016
CA,Five Points Solar Park,42913,Fresno,36.386944,-120.236667,2016
CA,Five Points Solar Station,29839,Fresno,36.400278,-120.103333,2016
CA,Folsom,593960,Sacramento,38.70675,-121.158443,2016
CA,Fontana,1294,San Bernardino,34.155162,-117.397119,2016
CA,Foothill,31469,Los Angeles,34.318248,-118.494449,2016
CA,Foothill Feeder,27372,Los Angeles,34.5148,-118.6092,2016
CA,Foothill Solar Project,,Los Angeles,34.2738,-118.3454,2016
CA,Forbestown,128938,Butte,39.551012,-121.278784,2016
CA,"Forever 21 Retail, Inc.",2212,Los Angeles,34.071389,-118.196111,2016
CA,Forks of Butte Hydro Project,51348,Butte,39.869284,-121.631865,2016
CA,Foster Wheeler Martinez,752411,Contra Costa,38.0244,-122.0589,2016
CA,Foundation AB,2610,Solano,38.232222,-122.092778,2016
CA,Foundation California Training Facility,,Monterey,36.464,-121.382,2016
CA,Foundation CDCR LAC,,Los Angeles,34.691,-118.221,2016
CA,Foundation Cemex BMQ,3367,San Bernardino,34.623056,-117.1125,2016
CA,Foundation Cemex Madison,1571,Yolo,38.692778,-121.9325,2016
CA,Foundation Cemex River Plant,2882,San Bernardino,34.561944,-117.307222,2016
CA,Foundation IE,337,San Bernardino,34.084722,-117.529444,2016
CA,Foundation Mann Packing,,Monterey,36.504,-121.454,2016
CA,Foundation NWNA,13774,Riverside,33.914167,-116.749167,2016
CA,Foundation RRM,9792,Riverside,33.917222,-116.815,2016
CA,Foundation SaIinas Valley State Prison,,Monterey,36.474,-121.371,2016
CA,Foundation Scheid Vineyards,,Monterey,36.274508,-121.191589,2016
CA,Foundation ST,2719,San Joaquin,37.714167,-121.521666,2016
CA,Foundation Superior Farms,1425,Solano,38.42,-121.818056,2016
CA,Foundation Wal-Mart Red Bluff,1985,Tehama,40.111111,-122.193889,2016
CA,Four Mile Hill,,Siskiyou,41.6014,-121.625,2016
CA,FPL Energy Montezuma Winds LLC,90591,Solano,38.163581,-121.79661,2016
CA,Frankenheimer Power Plant,9502,Stanislaus,37.830378,-120.806972,2016
CA,Franklin (CA),0,Los Angeles,34.103931,-118.413377,2016
CA,Franklin Templeton San Mateo,7144,San Mateo,37.5425,-122.292778,2016
CA,Freeway Springs,245,Los Angeles,33.892614,-118.037564,2016
CA,French Meadows,54456,Placer,39.077971,-120.406069,2016
CA,"Fresno Cogeneration Partners, LP",8484,Fresno,36.617022,-120.099846,2016
CA,Fresno Solar,6443,Fresno,36.616846,-120.105144,2016
CA,Friant Hydro Facility,38412,Fresno,36.997694,-119.703451,2016
CA,Frito-Lay Cogen Plant,27041,Kern,35.395063,-119.321633,2016
CA,Frontier Solar LLC,28416,Stanislaus,37.379919,-121.130661,2016
CA,FRV Cygnus Solar Project,50282,Kern,35.102778,-118.954444,2016
CA,FRV SI Transport Solar LP,1751,Sacramento,38.4869,-121.3911,2016
CA,Fullerton Mill CHP,67642,Orange,33.861667,-117.893056,2016
CA,G2 Energy Hay Rd,11921,Solano,38.314722,-121.833611,2016
CA,G2 Energy Ostrom Road LLC,24409,Yuba,39.0728,-121.3992,2016
CA,Gap Pacific Distribution Center,1975,Fresno,36.7839,-119.7094,2016
CA,Garnet Solar Generation Station I LLC,9602,Riverside,33.8906,-116.5431,2016
CA,Garnet Wind Energy Center,18632,Riverside,33.9053,-116.5825,2016
CA,Gas Utilization Facility,38861,San Diego,32.679172,-117.246698,2016
CA,Gates Peaker,,Fresno,36.152715,-120.148245,2016
CA,Gates Solar Station,43717,Fresno,36.176389,-120.114167,2016
CA,Gateway Generating Station,2435950,Contra Costa,38.0175,-121.7587,2016
CA,Gaviota Oil Plant,0,Santa Barbara,34.475067,-120.205107,2016
CA,GE 1.7-100 Prototype,3373,Kern,35.155278,-118.369444,2016
CA,Genentech Vacaville Meter #1,,Solano,38.390756,-121.94777,2016
CA,Genentech-Oceanside,4255,San Diego,33.211095,-117.299593,2016
CA,Genesis Solar Energy Project,624142,Riverside,33.665,-114.998055,2016
CA,Geo East Mesa II,59440,Imperial,32.7757,-115.2637,2016
CA,Geo East Mesa III,77604,Imperial,32.7757,-115.2637,2016
CA,Geothermal 1,475231,Sonoma,38.752,-122.7195,2016
CA,Geothermal 2,343787,Sonoma,38.7492,-122.7117,2016
CA,Geysers Unit 5-20,4628971,Sonoma,38.777,-122.745,2016
CA,Gianera,407,Santa Clara,37.401,-121.96867,2016
CA,Giffen,20678,Fresno,36.530278,-120.316111,2016
CA,Giffen Solar Park,,Fresno,36.544722,-120.316111,2016
CA,"Gilroy Energy Center, LLC",18168,Santa Clara,36.999,-121.5363,2016
CA,"Gilroy Energy Center, LLC for King City",419188,Monterey,36.225,-121.1278,2016
CA,Glenarm,32284,Los Angeles,34.126,-118.1494,2016
CA,Glendale Battery Energy Storage System,,Los Angeles,34.162327,-118.283684,2016
CA,Goal Line,22993,San Diego,33.1185,-117.0995,2016
CA,Golden Acorn Casino,4138,San Diego,32.702107,-116.354587,2016
CA,"Golden Fields Solar I, LLC",14887,Kern,34.839012,-118.386843,2016
CA,Golden Hills North Wind Energy Center,,Alameda,37.769189,-121.630163,2016
CA,Golden Hills Wind,282731,Alameda,37.713311,-121.640353,2016
CA,Golden Springs Building C-1,1819,Los Angeles,33.914167,-118.053611,2016
CA,Golden Springs Building D,1999,Los Angeles,33.911944,-118.052222,2016
CA,Goose Haven Energy Center,8760,Solano,38.226752,-121.843271,2016
CA,Gosselin Hydro Plant,6071,Trinity,40.37,-123.4347,2016
CA,Granger,1978,San Diego,33.2704,-117.0588,2016
CA,Grapeland Generating Station,33435,San Bernardino,34.0903,-117.5343,2016
CA,Graphic Packaging International,212079,SANTA CLARA,37.368153,-121.943607,2016
CA,Grassland 1&2 Solar Project,4663,Yolo,38.500278,-121.694167,2016
CA,Grassland 3&4 Solar Project,4608,Yolo,38.500278,-121.694167,2016
CA,Grayson Power Plant,144647,Los Angeles,34.1556,-118.2782,2016
CA,Green Acres Solar Facility 1,6720,Sacramento,38.282021,-121.464676,2016
CA,Green Acres Solar Facility 2,2315,Sacramento,38.28357,-121.461264,2016
CA,Green Beanworks B PV,,Los Angeles,34.688042,-117.989541,2016
CA,Green Beanworks C PV,,Los Angeles,34.597,-117.931,2016
CA,Green Beanworks D PV,,Los Angeles,34.654976,-118.08215,2016
CA,Green Power I,23620,Riverside,33.9014,-116.7167,2016
CA,Greenleaf One,46621,Sutter,39.052922,-121.696072,2016
CA,Greg Avenue,0,Los Angeles,34.20795,-118.3516,2016
CA,Gridley Main,1789,Butte,39.373333,-121.684167,2016
CA,Gridley Main Two,4749,Butte,39.373333,-121.681667,2016
CA,Grizzly,40738,Plumas,39.889287,-121.279173,2016
CA,Grossmont Hospital,19429,San Diego,32.77973,-117.006397,2016
CA,GRS American Canyon,,Napa,38.1419,-122.2439,2016
CA,GRS Coyote Canyon,0,Orange,33.613,-117.8219,2016
CA,GRS Newby I,,Santa Clara,37.4567,-121.9419,2016
CA,Guernsey Solar Station,45922,Kings,36.163889,-119.650556,2016
CA,H. Gonzales,312,Los Angeles,33.9986,-118.2219,2016
CA,Haas,344669,Fresno,36.927424,-119.02025,2016
CA,Haiwee,6770,Inyo,36.109722,-117.956667,2016
CA,Halsey,29404,Placer,38.956985,-121.041932,2016
CA,Hamilton Branch,10118,Plumas,40.268712,-121.089479,2016
CA,Hanford 1 and 2,6042,Kings,36.306667,-119.629167,2016
CA,Hanford Energy Park Peaker,25634,Kings,36.270072,-119.648055,2016
CA,Harbor Cogen,17402,Los Angeles,33.7771,-118.2303,2016
CA,Harbor Generating Station,135414,Los Angeles,33.7706,-118.2656,2016
CA,Hat Creek 1,25538,Shasta,40.929297,-121.544462,2016
CA,Hat Creek 2,32645,Shasta,40.960675,-121.548657,2016
CA,Hatchet Creek Project,20683,Shasta,40.874144,-121.920428,2016
CA,Hatchet Ridge Wind Project,287240,Shasta,40.8981,-121.8036,2016
CA,Haynes Generating Station,3368110,Los Angeles,33.764741,-118.09913,2016
CA,Haypress,24682,Sierra,39.565677,-120.581684,2016
CA,Hayworth Solar,59224,Kern,35.325278,-118.878611,2016
CA,Heber Geothermal,355359,Imperial,32.7146,-115.518,2016
CA,Heber Solar,25925,Imperial,32.7125,-115.540556,2016
CA,Hecate Energy Beacon Solar 1,,Kern,35.269444,-118.014444,2016
CA,Hecate Energy Beacon Solar 3,3013,Kern,35.253056,-118.014722,2016
CA,Hecate Energy Beacon Solar 4,9137,Kern,35.253611,-118.026944,2016
CA,Heliocentric,2792,Los Angeles,34.65434,-117.971004,2016
CA,Helms Energy Center,,Fresno,36.549167,-120.111111,2016
CA,Helms Pumped Storage,-498562,Fresno,37.029304,-118.968252,2016
CA,Helzel & Schwarzhoff 86,2492,Kern,35.0925,-118.3952,2016
CA,Helzel & Schwarzhoff 88 Wind Farm,1717,Kern,35.0908,-118.3936,2016
CA,Henrietta D Energy Storage LLC,,Kings,36.228872,-119.904686,2016
CA,Henrietta Peaker Plant,32522,Kings,36.2397,-119.9044,2016
CA,Henrietta Solar Project,132134,Kings,36.218806,-119.805833,2016
CA,Hesperia,3197,San Bernardino,34.435,-117.378056,2016
CA,HGST San Jose Standby Generator,29,Santa Clara,37.2444,-121.7963,2016
CA,Hickman,3360,Stanislaus,37.621536,-120.746247,2016
CA,High Desert Power Project,3089841,San Bernardino,34.5953,-117.3647,2016
CA,High Sierra Cogeneration Plant,34600,Lassen,40.4128,-120.4774,2016
CA,High Sierra Limited,10653,Kern,35.509041,-119.030546,2016
CA,High Winds LLC,314276,Solano,38.1381,-121.8053,2016
CA,HL Power,117760,Lassen,40.368338,-120.264848,2016
CA,Hoag Hospital Cogen Plant,0,Orange,33.622778,-117.936389,2016
CA,Hollister Solar LLC,3797,San Benito,36.8625,-121.428889,2016
CA,Honda Torrance,6958,Los Angeles,33.838056,-118.315,2016
CA,Horn,4406,Los Angeles,34.708889,-118.274167,2016
CA,Houweling Nurseries,70863,Ventura,34.179722,-119.083056,2016
CA,Hudson Ranch Power II LLC,,Imperial,33.204444,-115.556667,2016
CA,Humboldt Bay,366744,Humboldt,40.7415,-124.2103,2016
CA,Hunters Point,,San Francisco,37.733611,-122.389722,2016
CA,Huron Solar Station,42504,Fresno,36.181389,-120.030555,2016
CA,Hyperion Treatment Plant CHP Plant,,Los Angeles,33.9254,-118.4298,2016
CA,IKEA Tejon 345,2951,Kern,34.975278,-118.946944,2016
CA,Imperial Solar Energy Center South,294191,Imperial,32.663289,-115.658284,2016
CA,Imperial Solar Energy Center West,315255,Imperial,32.772225,-115.779311,2016
CA,"Imperial Valley Solar Co (IVSC) 2, LLC",49654,Imperial,33.252222,-115.4975,2016
CA,Imperial Valley Solar Company 1 LLC,52939,Imperial,33.245833,-115.496667,2016
CA,"Imperial Valley Solar, LLC",536525,Imperial,32.671099,-115.587265,2016
CA,Improvement Dst No. 4,1502,Kern,35.402778,-119.038611,2016
CA,Indian Valley Dam Hydro Project,1910,Lake,39.0788,-122.535556,2016
CA,Indigo Generation Facility,34464,Riverside,33.910873,-116.552994,2016
CA,Industry MetroLink PV 1,2867,Los Angeles,34.008661,-117.845603,2016
CA,Industry Solar Power Generation Station 1 LLC,4437,San Bernardino,34.553056,-117.456944,2016
CA,Ingredion Stockton,21188,San Joaquin,37.9128,-121.2614,2016
CA,Inland Empire Energy Center,383868,Riverside,33.738839,-117.170369,2016
CA,Inskip,18808,Tehama,40.400988,-121.965502,2016
CA,Intel Folsom,1645,Sacramento,38.645119,-121.172999,2016
CA,Intel Folsom Phase 2,1740,Sacramento,38.643611,-121.163889,2016
CA,Intel Folsom Phase 3,1535,Sacramento,38.645961,-121.162623,2016
CA,Intel Santa Clara,7853,Santa Clara,37.384745,-121.963808,2016
CA,Iron Gate,100752,Siskiyou,41.932981,-122.43678,2016
CA,Ironwood Solar LLC,8629,Riverside,33.565,-114.918056,2016
CA,Isabella Hydro Project,7498,Kern,35.6439,-118.4822,2016
CA,ISH Solar Hospital Downey,1616,Los Angeles,33.921667,-118.124444,2016
CA,ISH Solar Hospital SDMC,1629,San Diego,32.791667,-117.095277,2016
CA,Ivanhoe Solar,6835,Tulare,36.3875,-119.255,2016
CA,Ivanpah 1,255655,San Bernardino,35.533056,-115.4525,2016
CA,Ivanpah 2,199682,San Bernardino,35.556111,-115.468611,2016
CA,Ivanpah 3,247702,San Bernardino,35.580833,-115.4825,2016
CA,J S Eastwood,238699,Fresno,37.147926,-119.2567,2016
CA,J&A-Santa Maria II LLC,7905,Santa Barbara,34.9494,-120.3803,2016
CA,J.R. Simplot Company,10759,San Joaquin,37.806944,-121.2775,2016
CA,Jacumba Solar Farm,,San Diego,32.6212,-116.12896,2016
CA,James B Black,587264,Shasta,40.992295,-121.975182,2016
CA,Jaybird,575860,El Dorado,38.83405,-120.53176,2016
CA,John L. Featherstone Plant,443269,Imperial,33.204635,-115.573303,2016
CA,Jones Fork,22638,El Dorado,38.850283,-120.381883,2016
CA,Judge F Carr,133554,Shasta,40.646934,-122.626973,2016
CA,Juniper Networks Sunnyvale,6751,Santa Clara,37.406944,-122.026944,2016
CA,Kaiser Downey,4,Los Angeles,33.919167,-118.128611,2016
CA,Kaiser Ontario,4,San Bernardino,34.0325,-117.608889,2016
CA,Kanaka,1277,Butte,39.558897,-121.296117,2016
CA,Karen Avenue Wind Farm,27156,Riverside,33.92194,-116.56222,2016
CA,Kaweah 1,6976,Tulare,36.465066,-118.862023,2016
CA,Kaweah 2,5740,Tulare,36.461326,-118.87988,2016
CA,Kaweah 3,18979,Tulare,36.486059,-118.835645,2016
CA,Kaweah Delta District Hospital,20233,Tulare,36.3275,-119.2947,2016
CA,Kearny,4961,San Diego,32.834,-117.1338,2016
CA,Kekawaka Power House,12540,Trinity,40.0941,-123.508983,2016
CA,Kellogg's - San Jose,7256,Santa Clara,37.356389,-121.871944,2016
CA,Kelly Ridge,74148,Butte,39.531784,-121.491247,2016
CA,Kerckhoff,44863,Fresno,37.092486,-119.552826,2016
CA,Kerckhoff 2,302683,Fresno,37.071846,-119.558008,2016
CA,Kern Canyon,33870,Kern,35.44072,-118.796498,2016
CA,Kern Front Limited,38562,Kern,35.51647,-119.040128,2016
CA,Kern Oil & Refining Co,32124,Kern,35.295556,-118.918333,2016
CA,Kern River 1,152368,Kern,35.460303,-118.77959,2016
CA,Kern River 3,117487,Kern,35.776185,-118.436233,2016
CA,Kern River Cogeneration,691722,Kern,35.4515,-118.9849,2016
CA,Kern River Eastridge Cogen,240943,Kern,35.4406,-118.9617,2016
CA,Kern River Fee A Cogen,,Kern,35.459849,-119.013573,2016
CA,Kern River Fee B Cogen,,Kern,35.440481,-119.007726,2016
CA,Kern River Fee C Cogen,,Kern,35.464253,-118.996337,2016
CA,Keswick,333401,Shasta,40.611858,-122.446441,2016
CA,Kettering Solar 1,2094,Los Angeles,34.700278,-118.123611,2016
CA,Kettering Solar 2,1956,Los Angeles,34.700278,-118.123611,2016
CA,Kettleman Solar,,Kings,35.99,-120.12,2016
CA,Kettleman Solar -Centaurus,55998,Kings,36.050833,-119.9475,2016
CA,Kettleman Solar Project,2513,San Joaquin,38.12139,-121.14122,2016
CA,Kiefer Landfill,54140,Sacramento,38.5136,-121.1944,2016
CA,Kilarc,15462,Shasta,40.677827,-121.873253,2016
CA,King City Peaking,4391,Monterey,36.224758,-121.124633,2016
CA,Kingbird A Solar LLC,42079,Kern,34.819,-118.432,2016
CA,"Kingbird B Solar, LLC",39681,Kern,34.824206,-118.438547,2016
CA,Kings Beach,225,Placer,39.245833,-120.027222,2016
CA,Kings River PH,125119,Fresno,36.888166,-119.158777,2016
CA,Kingsburg Cogen Facility,25975,Fresno,36.5397,-119.5794,2016
CA,Kingsburg Solar,7515,Tulare,36.505278,-119.540278,2016
CA,Kohls San Bernardino Solar Facility,859,San Bernardino,34.094695,-117.266831,2016
CA,Kumeyaay Wind,142816,San Diego,32.705556,-116.3425,2016
CA,Kyocera America Project,7846,San Diego,32.819675,-117.140548,2016
CA,L-8 Solar Project,2175,Los Angeles,34.654347,-117.973103,2016
CA,La Grange,9540,Stanislaus,37.6697,-120.4436,2016
CA,La Joya Del Sol,3130,Fresno,36.678611,-119.7975,2016
CA,La Paloma Generating Plant,4236172,Kern,35.2956,-119.5919,2016
CA,Lake,13397,Los Angeles,34.1772,-118.3147,2016
CA,Lake Hodges Hydroelectric Facility,-10376,San Diego,33.058611,-117.119444,2016
CA,Lake Mathews,32845,Riverside,33.8553,-117.4537,2016
CA,Lake Mendocino,7997,Mendocino,39.197222,-123.185556,2016
CA,Lake Perris Solar,,Riverside,33.8361,-117.1297,2016
CA,Lambie Energy Center,9366,Solano,38.221577,-121.868333,2016
CA,Lancaster Baptist Church,2148,Los Angeles,34.695833,-118.058889,2016
CA,Lancaster Dry Farm Ranch B,12980,Los Angeles,34.716944,-118.289444,2016
CA,Lancaster Little Rock,12934,Los Angeles,34.599444,-117.932778,2016
CA,Lancaster SCE ReMAT,,Los Angeles,34.76027,-118.024608,2016
CA,Lancaster Solar 1,3580,Los Angeles,34.715,-118.095,2016
CA,Lancaster Solar 2,3580,Los Angeles,34.710556,-118.166111,2016
CA,Lancaster WAD B,,Los Angeles,34.780192,-118.19333,2016
CA,LanEast Solar Farm LLC,,San Diego,32.663611,-116.26472,2016
CA,LanWest Solar Farm LLC,,San Diego,32.629722,-116.27194,2016
CA,Larkspur Energy Faciity,46403,San Diego,32.567041,-116.944197,2016
CA,Las Virgenes Municipal Water District,2068,Los Angeles,34.136111,-118.701944,2016
CA,LATTC South Campus Solar,,Los Angeles,34.033056,-118.269722,2016
CA,Lemoore 1,2931,Kings,36.257938,-119.798139,2016
CA,Life Technologies - Pleasanton,7545,Alameda,37.643889,-121.884167,2016
CA,Life Technologies Carlsbad,7328,San Diego,33.137222,-117.286944,2016
CA,Lime Saddle,3295,Butte,39.698755,-121.57096,2016
CA,Lincoln Landfill,27590,Placer,38.838056,-121.341944,2016
CA,Lindberg FIeld Solar,5399,San Diego,32.729238,-117.207718,2016
CA,Lindberg Field Solar 2,,San Diego,32.729444,-117.205083,2016
CA,Linde Wilmington,0,Los Angeles,33.78856,-118.229392,2016
CA,Lindsay Solar,7836,Tulare,36.211944,-119.133889,2016
CA,"Little Bear Solar 1, LLC",,Fresno,36.716,-120.415,2016
CA,"Little Bear Solar 2, LLC",,Fresno,36.716,-120.41,2016
CA,Little Rock Pham Solar,9038,Los Angeles,34.600231,-117.94751,2016
CA,Live Oak Limited,10434,Kern,35.4837,-119.0298,2016
CA,Lockheed Martin Sunnyvale,7301,Santa Clara,37.413056,-122.028056,2016
CA,Lodi,1675,San Joaquin,38.146571,-121.300541,2016
CA,Lodi Energy Center,530187,San Joaquin,38.088056,-121.3875,2016
CA,Loma Linda University Cogen,71184,San Bernardino,34.050391,-117.248417,2016
CA,Loma Rica Hydroelectric Powerhouse,,Nevada,39.223028,-120.99108,2016
CA,Lone Valley Solar Park I LLC,22954,San Bernardino,34.398059,-116.865517,2016
CA,Lone Valley Solar Park II LLC,44965,San Bernardino,34.408333,-116.8625,2016
CA,Long Beach Generating Station,25032,Los Angeles,33.7641,-118.2248,2016
CA,"Longboat Solar, LLC",6921,San Bernardino,34.541,-117.061,2016
CA,Loon Lake,92670,El Dorado,38.982697,-120.324503,2016
CA,Lopez Canyon,,Los Angeles,34.292645,-118.389774,2016
CA,Los Angeles Harbor College,2555,Los Angeles,33.783102,-118.28493,2016
CA,Los Angeles Refinery Wilmington,373715,Los Angeles,33.7686,-118.2867,2016
CA,Los Esteros Critical Energy Facility,153933,Santa Clara,37.425,-121.9319,2016
CA,"Los Medanos Energy Center, LLC",2852471,Contra Costa,38.030071,-121.873004,2016
CA,Lost Creek I,4032,Shasta,40.7576,-121.4145,2016
CA,Lost Hills Cogeneration Plant,36543,Kern,35.666111,-119.766944,2016
CA,Lost Hills/Blackwell,91984,Kern,35.62,-119.85,2016
CA,Lower Tule River,10540,Tulare,36.13568,-118.788868,2016
CA,Lundy,7722,Mono,38.042729,-119.172015,2016
CA,Ma,4344,Los Angeles,34.695278,-118.0625,2016
CA,Maclay Solar Project,,Los Angeles,34.319722,-118.430833,2016
CA,"Madelyn Solar, LLC",2859,San Bernardino,34.768333,-117.323611,2016
CA,Madera 1 PV,,Madera,37.056468,-120.167021,2016
CA,Madera Community Hospital,2065,Madera,36.941111,-120.046667,2016
CA,Magnolia,,Los Angeles,34.178056,-118.315556,2016
CA,Magnolia,1628469,Los Angeles,34.1786,-118.3153,2016
CA,Malaga Power,29062,Fresno,36.6697,-119.7404,2016
CA,Malburg Generating Station,729120,Los Angeles,33.9986,-118.2219,2016
CA,Mammoth Pacific I,58949,Mono,37.6451,-118.9143,2016
CA,Mammoth Pacific II,71943,Mono,37.6464,-118.9092,2016
CA,Mammoth Pool,632582,Madera,37.220302,-119.337983,2016
CA,Mandalay Generating Station,156692,Ventura,34.2067,-119.2511,2016
CA,Manteca Land PV,,San Joaquin,37.84013,-121.216191,2016
CA,Manzana Wind LLC,540522,Kern,34.9349,-118.4612,2016
CA,Margarita Energy Center,,Orange,33.549444,-117.627777,2016
CA,Mariani Packing Vacaville Solar,1863,Solano,38.40008,-121.96366,2016
CA,Maricopa East Solar,,Kern,35.098,-119.088,2016
CA,Maricopa West Solar 2,,Kern,35.121389,-119.325,2016
CA,"Maricopa West Solar PV, LLC",52566,Kern,35.115278,-119.317778,2016
CA,Marin Clean Energy Solar One,,Contra Costa,37.945296,-122.377202,2016
CA,Marina Landfill Gas,19075,Monterey,36.7131,-121.7686,2016
CA,Mariposa Energy Project,85575,Alameda,37.789167,-121.601944,2016
CA,Marsh Landing Generating Station,66671,Contra Costa,38.016944,-121.765,2016
CA,Martinez Refining,826189,Contra Costa,38.0169,-122.1117,2016
CA,Martinez Sulfuric Acid Regeneration Plt,13072,Contra Costa,38.0314,-122.1139,2016
CA,Maxim,8128,Santa Clara,37.405689,-121.949416,2016
CA,MCAGCC Cogen Plant,,San Bernardino,34.237222,-116.054167,2016
CA,McClellan (CA),5260,Sacramento,38.652731,-121.393336,2016
CA,McClure,2853,Stanislaus,37.62936,-120.93139,2016
CA,McCoy Solar Energy Project,694378,Riverside,33.694722,-114.739722,2016
CA,McGrath Generating Station,31297,Ventura,34.205556,-119.246944,2016
CA,McKittrick Cogen,83181,Kern,35.3161,-119.6597,2016
CA,McKittrick Limited,7248,Kern,35.319503,-119.661992,2016
CA,McSwain,20145,Mariposa,37.522065,-120.31009,2016
CA,Merced 1 PV,,Merced,36.989475,-120.878081,2016
CA,Merced Falls,7997,Merced,37.52301,-120.329905,2016
CA,Merced Solar LLC,3625,Merced,37.267778,-120.484444,2016
CA,Meridian Vineyards,1837,San Luis Obispo,35.670278,-120.566944,2016
CA,Mesa Wind Power Corp,7261,Riverside,33.9461,-116.6769,2016
CA,Mesquite Lake Energy Park Plant 2,,Imperial,32.903826,-115.511949,2016
CA,Mesquite Lake Water & Power Plant 1,,Imperial,32.906569,-115.513747,2016
CA,Metcalf Energy Center,2686602,Santa Clara,37.2207,-121.7457,2016
CA,Metro Support Services Center Solar,1576,Los Angeles,34.0578,-118.229722,2016
CA,Mid Valley Plant,11807,San Bernardino,34.1425,-117.4274,2016
CA,Middle Fork,531978,Placer,39.024801,-120.596383,2016
CA,Middle Gorge,21160,Mono,37.51,-118.569167,2016
CA,Mid-Set Cogeneration,270558,Kern,35.19456,-119.57097,2016
CA,Midway Peaking,41395,Fresno,36.654114,-120.579727,2016
CA,Midway Solar Farm 1,,Imperial,33.176627,-115.572788,2016
CA,Midway Solar Farm II,,Imperial,33.162056,-115.531694,2016
CA,Midway Solar Farm III,,Imperial,33.154761,-115.544918,2016
CA,Midway Sunset Cogen,910688,Kern,35.2269,-119.6294,2016
CA,Mill Creek 3,5230,San Bernardino,34.088019,-117.039539,2016
CA,MillerCoors Irwindale Brewery,19176,Los Angeles,34.121667,-117.938333,2016
CA,Millikan BESS,0,Orange,33.691,-117.833,2016
CA,Mira Loma,3908,Riverside,34.013056,-117.5375,2016
CA,Mira Loma Energy Storage Facility,0,San Bernardino,34.006125,-117.560934,2016
CA,Mira Loma Generating Station,32593,San Bernardino,34.0053,-117.5604,2016
CA,Miramar,2624,San Diego,32.8761,-117.1664,2016
CA,Miramar Energy Facility,122813,San Diego,32.8769,-117.166389,2016
CA,Mission Rock Energy Center,,Ventura,34.30873,-119.1067,2016
CA,Mission Solar LLC,3594,Merced,37.267778,-120.4825,2016
CA,"Mitchell Solar, LLC",4484,San Bernardino,34.765,-117.323611,2016
CA,MM Lopez Energy,39949,Los Angeles,34.2925,-118.389444,2016
CA,MM San Diego-Miramar,50825,San Diego,32.844845,-117.162747,2016
CA,MM San Diego-North City,29076,San Diego,32.8817,-117.1958,2016
CA,MM Tulare Energy,,Tulare,36.388,-119.394,2016
CA,MM West Covina,47791,Los Angeles,34.033206,-117.906129,2016
CA,MM Yolo Power,17222,Yolo,38.596283,-121.687518,2016
CA,Mobile GT,,Humboldt,40.741389,-124.210278,2016
CA,Moccasin,359476,Tuolumne,37.809388,-120.299254,2016
CA,Moccasin Low Head Hydro Project,1359,Tuolumne,37.816447,-120.312033,2016
CA,Mojave 16,36900,Kern,35.045,-118.2642,2016
CA,Mojave 17,32898,Kern,35.044,-118.2765,2016
CA,Mojave 18,48832,Kern,35.046,-118.2757,2016
CA,Mojave 3,64184,Kern,35.068,-118.2898,2016
CA,Mojave 4,79678,Kern,35.0506,-118.2572,2016
CA,Mojave 5,65104,Kern,35.076,-118.2487,2016
CA,Mojave Siphon,62376,San Bernardino,34.307444,-117.323548,2016
CA,Mojave Solar Project,624907,San Bernardino,35.017717,-117.339144,2016
CA,Monterey Regional Water Cogen Facility,8643,Monterey,36.7056,-121.7714,2016
CA,Monterey Regional Water Pollution Contro,1282,Monterey,36.721111,-121.787778,2016
CA,Montezuma Wind II,200624,Solano,38.116667,-121.821944,2016
CA,Montgomery Creek Hydro,11134,Shasta,40.846806,-121.956446,2016
CA,Monticello Dam,34959,Solano,38.513056,-122.104444,2016
CA,Morelos del Sol,39044,Kern,35.731362,-119.818712,2016
CA,Morgan Lancaster 1,4272,Los Angeles,34.6608,-118.0836,2016
CA,Moss Landing,2584936,Monterey,36.804837,-121.782241,2016
CA,Mount Signal Solar 2,,Imperial,32.6685,-115.6292,2016
CA,Mount Signal Solar Farm 3,,Imperial,32.678805,-115.56721,2016
CA,Mountain View I&2,183827,Riverside,33.9211,-116.5642,2016
CA,Mountain View III,73553,Riverside,33.9141,-116.5914,2016
CA,Mountain View IV,165961,Riverside,33.8816,-116.5527,2016
CA,Mountainview Generating Station,4890772,San Bernardino,34.0818,-117.2418,2016
CA,Mt Lassen Power,,Lassen,40.2969,-121.0178,2016
CA,Mt Poso Cogeneration,258203,Kern,35.576323,-119.006245,2016
CA,Muck Valley Hydroelectric,88172,Lassen,40.976389,-121.255833,2016
CA,Municipal Cogen Plant,4496,Riverside,33.8247,-116.5106,2016
CA,Munro Valley Solar,405,Inyo,36.2647,-117.9955,2016
CA,Murphys,13756,Calaveras,38.147093,-120.446396,2016
CA,Mustang Hills LLC,314587,Kern,35.030855,-118.293188,2016
CA,MVUT,0,San Diego,32.765,-117.1639,2016
CA,Nacimiento Hydro Project,1062,San Luis Obispo,35.798576,-120.883331,2016
CA,Narrows 2,28713,Yuba,39.238996,-121.270409,2016
CA,Narrows PH,41923,Nevada,39.2364,-121.271741,2016
CA,Navajo Solar Power Generation Station 1 LLC,4537,San Bernardino,34.551111,-117.191111,2016
CA,Naval Air Weapons Station China Lake,29424,Kern,35.68771,-117.68137,2016
CA,Naval Hospital Medical Center,4083,San Diego,32.7261,-117.1464,2016
CA,Naval Station,,San Diego,32.681667,-117.120277,2016
CA,Naval Station Energy Facility,352885,San Diego,32.679269,-117.122447,2016
CA,Naval Training Center,,San Diego,32.735556,-117.208333,2016
CA,NCPA Combustion Turbine Project #2,2304,San Joaquin,38.088138,-121.386944,2016
CA,Neenach Solar Center,,Los Angeles,34.812791,-118.60117,2016
CA,Nelson Creek,2502,Shasta,41.028893,-121.892351,2016
CA,New Hogan Power Plant,4816,Calaveras,38.149582,-120.814942,2016
CA,New Melones,212094,Tuolumne,37.946927,-120.528211,2016
CA,Newberry Solar 1 LLC,2546,San Bernardino,34.853581,-116.683108,2016
CA,Newcastle,16068,Placer,38.835182,-121.092982,2016
CA,New-Indy Ontario Mill,244988,San Bernardino,34.045361,-117.540193,2016
CA,NextEra Westside PV,,Fresno,36.381775,-120.134486,2016
CA,Nickel 1 Solar Facility,2991,Kern,35.647295,-119.716512,2016
CA,Nicolis Solar PV Plant,10254,Tulare,35.835833,-119.056111,2016
CA,Niland Gas Turbine Plant,76093,Imperial,33.238842,-115.504456,2016
CA,Nimbus,53959,Sacramento,38.63735,-121.220198,2016
CA,Nordhoff Place,1765,Los Angeles,34.236667,-118.565833,2016
CA,North Bay Solar 1,2153,Solano,38.300556,-121.966389,2016
CA,North Brawley Geothermal Plant,70885,Imperial,33.0139,-115.5439,2016
CA,North City Cogeneration Facility,9126,San Diego,32.877822,-117.197788,2016
CA,North Fork Community Power,,Madera,37.231531,-119.49425,2016
CA,North Hollywood,0,Los Angeles,34.194444,-118.39028,2016
CA,North Island,,San Diego,32.705,-117.190277,2016
CA,North Island Energy Facility,308548,San Diego,32.70516,-117.189665,2016
CA,North Lancaster Ranch,969,Los Angeles,34.719538,-118.31301,2016
CA,North Midway Cogen,,Kern,35.2761,-119.5986,2016
CA,North Palm Springs 1A,3678,Riverside,33.924167,-116.593333,2016
CA,North Palm Springs 4A,5630,Riverside,33.909722,-116.5625,2016
CA,North Rosamond Solar LLC,,Kern,34.862,-118.38,2016
CA,North Sky River Energy LLC,464374,Kern,35.347778,-118.186389,2016
CA,North Star Solar,149639,Fresno,36.73,-120.41,2016
CA,Nove Power Plant,4761,Contra Costa,37.9676,-122.382,2016
CA,NRG Energy San Diego,1294,San Diego,32.7149,-117.1689,2016
CA,NRG Solar Blythe LLC,45470,Riverside,33.5917,-114.7444,2016
CA,NRG Solar Borrego I,71082,San Diego,33.298889,-116.35083,2016
CA,NRG Solar Oasis LLC,59114,Los Angeles,34.648889,-118.076667,2016
CA,NTC/MCRD Energy Facility,166748,San Diego,32.7353,-117.2083,2016
CA,Nunn,2956,San Bernardino,34.509167,-117.154444,2016
CA,Oak Creek Energy Systems I,65658,Kern,35.043889,-118.276388,2016
CA,Oak Flat,5873,Plumas,40.07531,-121.16143,2016
CA,Oakley Generating Station,,Contra Costa,38.01,-121.7475,2016
CA,Oakley Solar Project,2546,Contra Costa,38.001667,-121.747778,2016
CA,Oasis Wind,178931,Kern,35.06094,-118.292406,2016
CA,Occidental College Solar Project,1858,Los Angeles,34.1283,-118.206903,2016
CA,Ocotillo Express LLC,530978,Imperial,32.752778,-116.044722,2016
CA,Oildale Energy LLC,322,Kern,35.417,-119.0102,2016
CA,Olinda Landfill Gas Recovery Plant,,Orange,33.9056,-117.8439,2016
CA,Olive,0,Los Angeles,34.1764,-118.3147,2016
CA,Olive View Medical Center,17986,Los Angeles,34.326242,-118.44477,2016
CA,OLS Energy Chino,225984,San Bernardino,33.989626,-117.680911,2016
CA,Olsen,12003,Shasta,40.670536,-121.890645,2016
CA,Oltmans SCE at Champagne,1858,San Bernardino,34.043889,-117.531111,2016
CA,Oltmans SCE at Jurupa,2953,San Bernardino,34.05,-117.596111,2016
CA,One Market Plaza,2381,San Francisco,37.793333,-122.394167,2016
CA,One Ten Partners PV,,Los Angeles,34.615622,-117.936594,2016
CA,ONeill,-50859,Merced,37.098671,-121.047718,2016
CA,Orange Grove Project,42126,San Diego,33.3594,-117.1114,2016
CA,Ord Mountain Solar,,San Bernardino,34.558411,-116.935434,2016
CA,Orion Solar I,30567,Kern,35.150694,-118.875,2016
CA,Orion Solar II,19668,Kern,35.150694,-118.875278,2016
CA,Ormesa I,66045,Imperial,32.8156,-115.2568,2016
CA,Ormesa IE,,Imperial,32.8041,-115.2475,2016
CA,Ormesa IH,28069,Imperial,32.7842,-115.2475,2016
CA,Ormesa II,69347,Imperial,32.7881,-115.2481,2016
CA,Ormond Beach Generating Station,103280,Ventura,34.1292,-119.1689,2016
CA,Oro Loma,,Fresno,36.876847,-120.667608,2016
CA,Oroville Cogeneration LP,135,Butte,39.492,-121.5628,2016
CA,Ortega Highway Energy Storage,-2,Orange,33.562061,-117.543777,2016
CA,"Otay Landfill Gas, LLC",43814,SAN DIEGO,32.5983,-117.0178,2016
CA,"Otay Mesa Energy Center, LLC",2654182,San Diego,32.581481,-116.914969,2016
CA,Otoe Solar Power Generation Station 1 LL,3564,San Bernardino,34.545,-117.191944,2016
CA,Owens Valley Solar Project 11,115,Inyo,36.275144,-118.012151,2016
CA,Oxbow (CA),19405,Placer,39.003372,-120.746651,2016
CA,Oxnard,502206,Ventura,34.196,-119.1667,2016
CA,Oxnard Paper Mill,196482,Ventura,34.1414,-119.1831,2016
CA,Oxnard Wastewater Treatment Plant,6401,Ventura,34.140501,-119.184529,2016
CA,P Plant,39850,San Diego,32.894722,-117.198056,2016
CA,Pacific Cruise Ship Terminals Berth 93,0,Los Angeles,33.7331,-118.27722,2016
CA,Pacific Ethanol Stockton Cogen Plant,0,San Joaquin,37.9418,-121.3383,2016
CA,Pacific Oroville Power Inc,,Butte,39.480419,-121.565663,2016
CA,Pacific Rim Dairy Digester,6364,Tulare,36.033056,-119.51,2016
CA,Pacific Wind LLC,328829,Kern,34.891389,-118.4325,2016
CA,Pacific-Ultrapower Chinese Station,110996,Tuolumne,37.874056,-120.477556,2016
CA,Painted Hills,32833,Riverside,33.9369,-116.6183,2016
CA,Painted Hills IV Wind,,Riverside,33.925727,-116.616666,2016
CA,Pala Energy Storage Yard,-4,San Diego,33.35651,-117.113599,2016
CA,Palo Verde College,2300,Riverside,33.661667,-114.651667,2016
CA,Palomar Energy Center,2299052,San Diego,33.1197,-117.117778,2016
CA,Palos Verdes Gas to Energy,,Los Angeles,33.792778,-118.35,2016
CA,Panoche Energy Center,366164,Fresno,36.6514,-120.5833,2016
CA,Panoche Valley Solar Farm,,San Benito,36.78005,-120.729752,2016
CA,Paramount Refinery,,Los Angeles,33.9,-118.151389,2016
CA,Pardee,100166,Calaveras,38.2569,-120.8507,2016
CA,Park Meridian #1,3151,Riverside,33.896111,-117.283611,2016
CA,Parker,4958,Merced,37.477838,-120.444492,2016
CA,Parker Dam,440872,San Bernardino,34.295334,-114.140222,2016
CA,Parnassus Central Utility Plant,72392,San Francisco,37.762524,-122.456747,2016
CA,Pastoria Energy Facility,4365684,Kern,34.9556,-118.844,2016
CA,Patterson Pass,,Alameda,37.701956,-121.613708,2016
CA,PE Berkeley,197184,Alameda,37.870331,-122.26337,2016
CA,Peak Valley Solar Farm,,San Bernardino,34.987952,-117.571611,2016
CA,Pebbly Beach,29474,Los Angeles,33.333056,-118.310278,2016
CA,Perris,4497,Riverside,33.8361,-117.1831,2016
CA,Phillips 66 Carbon Plant,90784,Contra Costa,38.018056,-122.2344,2016
CA,Phillips 66 Rodeo Refinery,381772,Contra Costa,38.0417,-122.2583,2016
CA,Phoenix,7876,Tuolumne,38.032103,-120.326537,2016
CA,Phoenix Wind Power LLC,,Riverside,33.916667,-116.55,2016
CA,Pierce College,,Los Angeles,34.183611,-118.574722,2016
CA,Pilot Knob,23619,Imperial,32.736642,-114.713858,2016
CA,Pine Flat,238379,Fresno,36.8326,-119.327,2016
CA,Pine Tree Solar Project,11443,Kern,35.229635,-118.1957,2016
CA,Pine Tree Wind Power Project,141609,Kern,35.248006,-118.175356,2016
CA,Pinyon Pine I,346699,Kern,35.043411,-118.211835,2016
CA,Pinyon Pine II,250438,Kern,35.026759,-118.223333,2016
CA,Pio Pico Energy Center LLC,36247,San Diego,32.573889,-116.917777,2016
CA,Pit 1,191861,Shasta,40.99084,-121.498243,2016
CA,Pit 3,299634,Shasta,40.997448,-121.748139,2016
CA,Pit 4,392158,Shasta,40.986361,-121.84944,2016
CA,Pit 5,587622,Shasta,40.986197,-121.977594,2016
CA,Pit 6,313589,Shasta,40.922568,-121.992906,2016
CA,Pit 7,423270,Shasta,40.847462,-121.990798,2016
CA,Pitchess Cogen Station,183720,Los Angeles,34.463896,-118.593991,2016
CA,Pittsburg Generating Station (CA),110709,Contra Costa,38.039168,-121.894469,2016
CA,Pixar - Emeryville,7758,Alameda,37.83286,-122.284003,2016
CA,Plant No 1 Orange County,38632,Orange,33.6942,-117.9381,2016
CA,Plant No 2 Orange County,52475,Orange,33.6433,-117.9556,2016
CA,Pleasant Valley Hydro,3424,Inyo,37.41416,-118.523889,2016
CA,Ples I,86832,Mono,37.6455,-118.9096,2016
CA,Poe,431224,Butte,39.722892,-121.469814,2016
CA,"Pomerado Energy Storage, LLC",,San Diego,32.94,-117.04,2016
CA,Ponderosa Bailey Creek,3515,Tehama,40.4579,-121.8427,2016
CA,Poole,30359,Mono,37.944237,-119.2161,2016
CA,Port of LA Solar FiT Project,0,Los Angeles,33.727977,-118.280032,2016
CA,Portal,11019,Fresno,37.257045,-119.158936,2016
CA,"Portal Ridge Solar A, LLC",,Los Angeles,34.71533,-118.25908,2016
CA,"Portal Ridge Solar B, LLC",,Los Angeles,34.71647,-118.2821,2016
CA,"Portal Ridge Solar C, LLC",,Los Angeles,34.71412,-118.2739,2016
CA,Porterville 6 and 7,5936,Tulare,36.05,-119.02,2016
CA,Porterville Solar,6975,Tulare,36.102778,-119.039722,2016
CA,Portola,,Plumas,39.816944,-120.463333,2016
CA,Potrero Hills Energy Producers,42826,Solano,38.216973,-121.979452,2016
CA,Potter Valley,8340,Mendocino,39.361786,-123.127934,2016
CA,Power Generation Station (PGS) 2,28292,Alameda,37.825833,-122.296111,2016
CA,Powhatan Solar Power Generation Station 1 LLC,4495,San Bernardino,34.496944,-117.145,2016
CA,PRC-Desoto Intl/PPG Aerospace,0,Kern,34.989722,-118.150556,2016
CA,Prima Plant,48673,Orange,33.494925,-117.614587,2016
CA,Puente Hills Energy Recovery,286774,Los Angeles,34.0233,-118.0241,2016
CA,Pulp Mill Power House,,Humboldt,40.8054,-124.1949,2016
CA,Pumpjack Solar I,49814,Kern,35.305556,-119.6225,2016
CA,Putah Creek Solar Farm,,Yolo,38.521111,-121.993889,2016
CA,"PVN Milliken, LLC",,San Bernardino,34.038433,-117.565802,2016
CA,Q Plant,35215,San Diego,32.904167,-117.201111,2016
CA,Quinto Solar PV Project,280955,Merced,37.130278,-121.052222,2016
CA,R C Kirkwood,567483,Tuolumne,37.877667,-119.953233,2016
CA,R E Badger Filtration Plant,0,San Diego,33.051,-117.175,2016
CA,Radiance Solar 4,3367,Los Angeles,34.665556,-118.288056,2016
CA,Radiance Solar 5,3349,Los Angeles,34.665556,-118.286944,2016
CA,Ralston,400971,Placer,39.000999,-120.725053,2016
CA,Ramona 1,4857,San Diego,33.012222,-116.875,2016
CA,Ramona 2,11767,San Diego,33.012222,-116.875,2016
CA,Ramona Solar Energy,,San Diego,33.018486,-116.860713,2016
CA,Rancho Cucamonga Dist #1,3265,San Bernardino,34.100278,-117.552778,2016
CA,Rancho Penasquitos,8861,San Diego,32.93695,-117.113669,2016
CA,Rancho Seco Solar,,Sacramento,38.340015,-121.113861,2016
CA,"Rancho Seco Solar, LLC",7881,Sacramento,38.339857,-121.114494,2016
CA,RCWD PV Project,5203,Riverside,33.5226,-117.1815,2016
CA,RCWMD Badlands Landfill Gas Project,6208,Riverside,33.9583,-117.125,2016
CA,"RE Adams East, LLC",49881,Fresno,36.6175,-120.290833,2016
CA,RE Astoria,103305,Kern,34.844226,-118.458466,2016
CA,RE Astoria 2,53897,Kern,34.836649,-118.480204,2016
CA,RE Barren Ridge 1,92126,Kern,35.20473,-118.06875,2016
CA,RE Bruceville 1,12080,Sacramento,38.3475,-121.412777,2016
CA,RE Bruceville 2,11939,Sacramento,38.3475,-121.412777,2016
CA,RE Bruceville 3,12067,Sacramento,38.3475,-121.412777,2016
CA,RE Camelot LLC,131769,Kern,35.026667,-118.185556,2016
CA,"RE Columbia Two, LLC",44240,Kern,35.026667,-118.185556,2016
CA,RE Dillard 1,7106,Sacramento,38.468611,-121.181944,2016
CA,RE Dillard 2,7006,Sacramento,38.466111,-121.177778,2016
CA,RE Dillard 3,6962,Sacramento,38.461944,-121.180278,2016
CA,RE Dillard 4,845,Sacramento,38.461944,-121.180278,2016
CA,RE Garland,54915,Kern,34.825267,-118.524989,2016
CA,RE Garland A,21784,Kern,34.821453,-118.497406,2016
CA,RE Gaskell West 1 LLC,,Kern,34.834944,-188.551181,2016
CA,RE Gaskell West 2 LLC,,Kern,34.834944,-118.551181,2016
CA,RE Gaskell West 3 LLC,,Kern,34.834944,-118.551181,2016
CA,RE Gaskell West 4 LLC,,Kern,34.834944,-118.551181,2016
CA,RE Gaskell West 5 LLC,,Kern,34.834944,-118.551181,2016
CA,RE Kammerer 1,12110,Sacramento,38.365053,-121.381101,2016
CA,RE Kammerer 2,11964,Sacramento,38.365053,-121.381101,2016
CA,RE Kammerer 3,11967,Sacramento,38.365053,-121.381101,2016
CA,"RE Kansas Solar, LLC",53739,Kings,36.247778,-119.833889,2016
CA,RE Kansas South LLC,53052,Kings,36.226111,-119.834167,2016
CA,"RE Kent South, LLC",53478,Kings,36.226111,-119.905278,2016
CA,RE McKenzie 1,12316,Sacramento,38.302594,-121.295819,2016
CA,RE McKenzie 2,12298,Sacramento,38.302594,-121.295819,2016
CA,RE McKenzie 3,12358,Sacramento,38.302594,-121.295819,2016
CA,RE McKenzie 4,12000,Sacramento,38.302594,-121.295819,2016
CA,RE McKenzie 5,12433,Sacramento,38.302594,-121.295819,2016
CA,RE McKenzie 6,12371,Sacramento,38.302594,-121.295819,2016
CA,RE Mustang LLC,211657,Kings,36.221667,-119.903056,2016
CA,"RE Old River One, LLC",51088,Kern,35.223333,-119.088889,2016
CA,RE Tranquility 8,,Fresno,36.581182,-120.37957,2016
CA,RE Tranquillity,207829,Fresno,36.581365,-120.40447,2016
CA,RE Victor Phelan Solar One LLC,49702,San Bernardino,34.51231,-117.47753,2016
CA,Red Bluff,25241,Tehama,40.1501,-122.2124,2016
CA,Red Mountain,25595,San Diego,33.3944,-117.1889,2016
CA,Redcrest Solar Farm,40454,Kern,35.321944,-118.812778,2016
CA,Redding Power Plant,303162,Shasta,40.507292,-122.423281,2016
CA,Redwood 4 Solar Farm,,Kern,35.314198,-118.81192,2016
CA,Regional Wastewater Control Facility,12813,San Joaquin,37.9369,-121.3294,2016
CA,Regulus Solar Project,150982,Kern,35.3,-118.851944,2016
CA,RET  Modesto Solar,64273,Stanislaus,37.734167,-120.995556,2016
CA,Richard J Donovan Correctional Facility,6697,San Diego,32.583571,-116.930907,2016
CA,Richmond Cogen,900572,Contra Costa,37.9418,-122.3909,2016
CA,Richmond Refinery TG800,,Contra Costa,37.932222,-122.389722,2016
CA,Ridgetop,151962,Kern,35.074,-118.3153,2016
CA,Ridgetop Energy LLC,55674,Kern,35.0697,-118.3167,2016
CA,Rio Bravo Fresno,181084,Fresno,36.688915,-119.723218,2016
CA,Rio Bravo Hydro Project,12201,Kern,35.43,-118.8222,2016
CA,Rio Bravo Jasmin,,Kern,35.7415,-119.0512,2016
CA,Rio Bravo Rocklin,169051,Placer,38.8319,-121.313652,2016
CA,Rio Bravo Solar 1 LLC,701,Kern,35.416111,-119.6825,2016
CA,Rio Bravo Solar II LLC,107,Kern,35.4225,-119.629167,2016
CA,Rio Grande Solar,11591,Kern,35.00745,-118.16451,2016
CA,Rio Hondo,1737,Los Angeles,34.004722,-118.09917,2016
CA,Ripon Generation Station,69163,San Joaquin,37.7315,-121.116,2016
CA,Rising Tree Wind Farm,243489,Kern,35.0775,-118.218333,2016
CA,Rising Tree Wind Farm II,59197,Kern,35.088889,-118.206389,2016
CA,Rising Tree Wind Farm III,321253,Kern,35.060556,-118.243333,2016
CA,Riverside Energy Resource Center,69845,Riverside,33.9636,-117.4528,2016
CA,Riverside RWQCP Fuel Cell,3691,Riverside,33.9617,-117.455897,2016
CA,Riverview Energy Center,18119,Contra Costa,38.014423,-121.790679,2016
CA,Roaring Creek Water Power,6441,Shasta,40.882061,-121.948353,2016
CA,Robbs Peak,53967,El Dorado,38.896511,-120.378292,2016
CA,Robert O Schulz Solar Farm,2732,Stanislaus,37.8583,-120.8917,2016
CA,Rock Creek,346829,Plumas,39.90521,-121.345226,2016
CA,Rock Creek Dam,,Plumas,39.986944,-121.283055,2016
CA,Rock Creek LP,1286,El Dorado,38.78342,-120.778506,2016
CA,Rockwood,1569,Imperial,32.9553,-115.5364,2016
CA,Rodeo Solar C2,3715,Los Angeles,34.713333,-118.289444,2016
CA,Rodeo Solar D2,3788,Los Angeles,34.713333,-118.289444,2016
CA,"Rohr Inc, a UTC Aerospace Systems Company",21036,San Diego,32.6325,-117.0997,2016
CA,Roll Delano,6409,Kern,35.734167,-119.236667,2016
CA,Roll Delano 2,6234,Kern,35.739722,-119.238056,2016
CA,Roll Lost Hills,7462,Kern,35.653056,-119.889722,2016
CA,Rollins,74461,Placer,39.134259,-120.953341,2016
CA,Rosamond One,59218,Kern,34.9,-118.246944,2016
CA,Rosamond Two,50132,Kern,34.900278,-118.238333,2016
CA,Roseburg Forest Products Biomass,66013,Siskiyou,41.435556,-122.376944,2016
CA,Roseville,1003,Placer,38.810677,-121.323807,2016
CA,Roseville Energy Park,389502,Placer,38.7928,-121.3811,2016
CA,RPI Fuel Cell LLC,3834,San Bernardino,34.028611,-117.601388,2016
CA,"Rudy Solar, LLC",4456,San Bernardino,34.766389,-117.323611,2016
CA,Rugged Solar LLC,,San Diego,32.686111,-116.28056,2016
CA,Rush Creek,45954,Mono,37.766954,-119.123284,2016
CA,Russell City Energy Company LLC,786946,Alameda,37.63466,-122.13381,2016
CA,Rutan,4204,Los Angeles,34.643889,-118.163056,2016
CA,Sacramento (SMUD),2184,Sacramento,38.587222,-121.457778,2016
CA,Sacramento Fairbain Water Treatment Plan,1309,Sacramento,38.643611,-121.416389,2016
CA,Sacramento Power Authority Cogen,842369,Sacramento,38.511,-121.4735,2016
CA,Sacramento Regional County Sanitation PV,,Sacramento,38.448604,-121.46369,2016
CA,Sacramento Soleil LLC,1683,Sacramento,38.44979,-121.16469,2016
CA,Saint Agnes Medical Center,27057,Fresno,36.8347,-119.7667,2016
CA,Saint Johns Health Center,13,Los Angeles,34.030318,-118.47844,2016
CA,Salinas River Cogeneration Facility,295739,Monterey,35.9515,-120.8679,2016
CA,Salt Springs,174893,Amador,38.497914,-120.21811,2016
CA,Salton Sea Power Gen Co - Unit 2,90269,Imperial,33.1589,-115.6455,2016
CA,Salton Sea Power Gen Co - Unit 3,302287,Imperial,33.158153,-115.638656,2016
CA,Salton Sea Power Gen Co - Unit 4,263020,Imperial,33.157,-115.6386,2016
CA,Salton Sea Power Gen Co Unit 1,70948,Imperial,33.158,-115.6475,2016
CA,Salton Sea Power LLC - Unit 5,328870,Imperial,33.1533,-115.6384,2016
CA,San Antonio Regional Hospital,13911,San Bernardino,34.1019,-117.6381,2016
CA,San Antonio West Solar Rooftop,2657,Riverside,33.965617,-117.659059,2016
CA,San Diego State University,56648,San Diego,32.778225,-117.070114,2016
CA,San Dimas,38554,Los Angeles,34.1275,-117.7958,2016
CA,San Dimas Wash Generating Station,1495,Los Angeles,34.124171,-117.805091,2016
CA,San Fernando,682,Los Angeles,34.260527,-118.385531,2016
CA,San Francisco Electric Reliability Proj,,San Francisco,37.785556,-122.383611,2016
CA,San Francisco Intl Airport Ct Project,,San Mateo,37.635833,-122.383888,2016
CA,San Francisquito 1,68807,Los Angeles,34.590183,-118.454676,2016
CA,San Francisquito 2,1120,Los Angeles,34.534337,-118.525113,2016
CA,San Gabriel Hydro Project,855,Los Angeles,34.204311,-117.855714,2016
CA,San Gorgonio 1,,Riverside,34.030376,-116.857142,2016
CA,San Gorgonio Farms Wind Farm,88967,Riverside,33.926111,-116.615,2016
CA,San Gorgonio Westwinds II LLC,110141,Riverside,33.934,-116.5781,2016
CA,San Gorgonio Windplant WPP1993,187884,Riverside,33.918395,-116.573906,2016
CA,San Jacinto Solar,,Riverside,33.8346,-117.1309,2016
CA,San Joaquin 2,3389,Madera,37.203233,-119.497508,2016
CA,San Joaquin 3,480,Madera,37.253718,-119.519352,2016
CA,San Joaquin Cogen,,San Joaquin,37.8062,-121.2771,2016
CA,San Joaquin Solar,,Fresno,36.527,-120.149,2016
CA,San Jose Cogeneration,34699,Santa Clara,37.336113,-121.878332,2016
CA,San Onofre Nuclear Generating Station,,San Diego,33.368794,-117.554916,2016
CA,Sand Bar Power Plant,94963,Tuolumne,38.1861,-120.15,2016
CA,Sand Drag LLC,40166,Kings,35.982778,-120.110277,2016
CA,Santa Ana 1,876,San Bernardino,34.14522,-117.058481,2016
CA,Santa Ana 3,2699,San Bernardino,34.107245,-117.099091,2016
CA,Santa Clara (85C),0,Alameda,37.7361,-121.6475,2016
CA,Santa Clara Cogen,45441,Santa Clara,37.364297,-121.944238,2016
CA,Santa Cruz Energy,9149,Santa Cruz,36.973333,-122.105556,2016
CA,Santa Fe Springs Rooftop Solar BLDG H,2740,Los Angeles,33.910833,-118.044444,2016
CA,Santa Fe Springs Rooftop Solar BLDG M,3121,Los Angeles,33.910833,-118.044444,2016
CA,Santa Felicia Dam,0,Ventura,34.461667,-118.7511,2016
CA,Santa Maria Cogen Plant,,Santa Barbara,34.94434,-120.45791,2016
CA,Santa Maria EPG,16039,San Luis Obispo,35.040833,-120.636667,2016
CA,Santa Maria LFG Power Plant,9027,Santa Barbara,34.9537,-120.4142,2016
CA,Santa Paula Energy Storage,,Ventura,34.346825,-119.055014,2016
CA,Santa Rita Jail,0,Alameda,37.719167,-121.886944,2016
CA,Santa Rita Jail Fuel Cell,533,Alameda,37.719166,-121.886944,2016
CA,Sargent Canyon Cogen Facility,296315,Monterey,35.9359,-120.8408,2016
CA,"SC 1 Data Center, Phase 2",186,Santa Clara,37.361667,-121.943611,2016
CA,SCA Cogen II,726503,Sacramento,38.530943,-121.400128,2016
CA,Scattergood Generating Station,1419960,Los Angeles,33.918151,-118.427648,2016
CA,SCDA Solar 1,,Sacramento,38.690186,-121.586514,2016
CA,SCE-Snowline-Duncan Road (North),4003,San Bernardino,34.473889,-117.562778,2016
CA,SCE-Snowline-Duncan Road (South),2659,San Bernardino,34.471389,-117.562222,2016
CA,SCE-Snowline-White Rd (Central),3948,San Bernardino,34.415278,-117.47,2016
CA,SCE-Snowline-White Road (North),4047,San Bernardino,34.4175,-117.469722,2016
CA,SCE-Snowline-White Road (South),4086,San Bernardino,34.413056,-117.470833,2016
CA,Scotia Co-gen Humboldt Redwood Company LLC,77181,Humboldt,40.4728,-124.1014,2016
CA,Scott Flat,3911,Nevada,39.272108,-120.932508,2016
CA,SCWA R5 Pond Solar,,Sonoma,38.254417,-122.444153,2016
CA,SDCCD - Miramar,1363,San Diego,32.906111,-117.121389,2016
CA,SDCWA - Twin Oaks,1894,San Diego,33.21,-117.170556,2016
CA,Second Imperial Geothermal,165507,Imperial,32.7144,-115.5356,2016
CA,SEGS III,55882,San Bernardino,35.00694,-117.555768,2016
CA,SEGS IV,55331,San Bernardino,35.012166,-117.555672,2016
CA,SEGS IX,157969,San Bernardino,35.033,-117.338,2016
CA,SEGS V,55842,San Bernardino,35.01948,-117.55553,2016
CA,SEGS VI,50700,San Bernardino,35.020981,-117.566079,2016
CA,SEGS VII,41926,San Bernardino,35.014836,-117.565903,2016
CA,SEGS VIII,156267,San Bernardino,35.0308,-117.3563,2016
CA,"Sentinel Energy Center, LLC",449310,Riverside,33.934167,-116.571388,2016
